road,model_type,condition,name,lat,lon,length,chainage,road name2
N1,sourcesink,,Start of Road  after Jatrabari Flyover infront of filling station.,23.7060278,90.443333,,0.0,
N1,bridge,A,.,23.7028888888888,90.4503888888889,11.3,1.8,
N1,bridge,A,.,23.6936111111111,90.4788333333333,6.6,4.925,
N1,intersection,,,23.7060833,90.5215271,,8.763,N2
N1,bridge,C,KANCHPUR PC GIRDER BRIDGE,23.7020833333333,90.5159166666666,397.0,8.976,
N1,bridge,B,KATCHPUR BOX CULVERT,23.7020555555555,90.5281944444444,8.0,10.543,
N1,bridge,A,NOYAPARA CULVERT,23.6998333333333,90.5307222222222,6.3,10.88,
N1,bridge,A,ADUPUR CULVERT,23.6996666666666,90.5307222222222,6.3,10.897,
N1,bridge,A,NAYABARI KASPUR BOX CULVERT,23.6973611111111,90.5338333333333,8.3,11.296,
N1,bridge,B,NAYABARI BOX CULVERT,23.6943055555555,90.5378611111111,10.6,11.808,
N1,intersection,,,23.6904163,90.546583,,11.936,N105
N1,bridge,A,KHAS PARA BOX CULVERT,23.6923333333333,90.541,9.3,12.239,
N1,bridge,A,DAWAN BAG BOX CULVERT,23.6925555555555,90.5411388888888,6.1,12.253,
N1,bridge,A,Madanpur Bridge.(L),23.6854997,90.5512778,27.5,12.66,
N1,bridge,A,Madanpur Bridge(R),23.6853619779342,90.5513591765258,27.5,12.688,
N1,bridge,A,KAWTALA BOX CULVERT,23.6856111111111,90.5511944444444,11.9,13.574,
N1,bridge,B,MALIBAG BOX CULVERT,23.6706111111111,90.56,5.55,15.465,
N1,bridge,C,Langalbandh Bridge.,23.6559167,90.5745271,159.52,17.134,
N1,bridge,A,Darikandi Bridge (L),23.6508889,90.5826382,20.5,17.222,
N1,bridge,B,DARIKANDI BRIDGE (R),23.6560833333333,90.5743888888888,20.0,17.722,
N1,bridge,A,Sonakhal Bridge(L),23.6497543993548,90.5845490085483,25.5,18.093,
N1,bridge,C,MOLLIK PARA BRIDGE (R),23.6503888888888,90.5823611111111,40.5,18.742,
N1,bridge,A,KRIBORDI BOX CULVERT,23.6468055555555,90.5899166666666,6.0,19.76,
N1,bridge,B,SHADIPUR BOX CULVERT,23.6398055555555,90.5926666666666,10.4,20.397,
N1,bridge,A,Marikhali Bridge(R),23.6284668507692,90.6023015723077,89.75,21.184,
N1,bridge,B,SANGAKADI CULVERT,23.6263055555555,90.604,5.5,22.328,
N1,bridge,B,Ashariarchar Bridge(R),23.6176407964705,90.6095506105882,224.82,22.596,
N1,bridge,A,ASHARIR CHAR (L),23.6205277777777,90.6079166666666,120.1,23.081,
N1,bridge,A,Meghna Bridge,23.6018611,90.6159722,924.85,24.393,
N1,bridge,A,TATULTALA CULVERT,23.598,90.6221944444444,5.6,26.115,
N1,bridge,A,BAILAKANDI CULVERT,23.5961666666666,90.6246944444444,5.5,26.452,
N1,bridge,A,MALUAKANDI CULVEDRT,23.5917499999999,90.6293333333333,5.6,27.12,
N1,bridge,A,Bhater char Bridge (R),23.5825827,90.6381386,173.25,28.315,
N1,bridge,A,Anarpara Bridge (L),23.572166,90.6451108,29.85,29.138,
N1,bridge,A,VITIKANDA - ANAR PUR CULVERT,23.5723611111111,90.6451666666666,34.7,29.842,
N1,bridge,A,Alipur bridge(R),23.5590278,90.6559444,27.4,30.908,
N1,bridge,A,Bhaber char Bridge(R),23.5523333,90.6636667,29.85,31.472,
N1,bridge,A,Baushia Bridge(L),23.5517421907216,90.6643538752577,29.9,32.121,
N1,bridge,A,PURRANBUICHE BOX CULVERT,23.5524166666666,90.6636111111111,9.1,32.777,
N1,bridge,A,NOYAPARA,23.5523611111111,90.6636666666666,5.2,32.796,
N1,bridge,A,Madhya Baushia Bridge(L),23.5473611111111,90.6695,72.49,33.591,
N1,bridge,C,BOCTAR KANDI BOX CULVERT,23.5442777777777,90.6730833333333,5.1,34.111,
N1,bridge,A,.,23.5342222222222,90.6843333333333,9.5,35.181,
N1,bridge,A,Baushia bazar Bridge( L ),23.529916,90.6952219,25.45,35.408,
N1,bridge,A,CHAR BOUSHEA (2),23.5340833333333,90.6841944444444,8.4,35.707,
N1,bridge,C,Daud Kandi Bridge,23.5298611111111,90.6951388888888,1408.8,37.01,
N1,bridge,C,Baldhakhal Bridge,23.522818601848,90.7242859256673,23.1,39.304,
N1,bridge,B,MAIS PARA BOX CULVERT,23.5334722222222,90.7227222222222,6.0,39.86,
N1,bridge,C,Shahid Nagor Bridge,23.5298050611,90.75825325,16.5,42.936,
N1,bridge,C,SARKAR BARI CULVERT,23.5303888888888,90.7731111111111,3.9,45.164,
N1,bridge,C,AMIRABATH SLAB CULVERT,23.53175,90.7895,6.5,46.871,
N1,bridge,C,Ginlatoly,23.5309444444444,90.8041944444444,15.9,48.384,
N1,bridge,A,RAIPUR BOX CULVERT,23.5347222222222,90.825,12.2,50.558,
N1,bridge,C,AITAL BANGA BOX CULVERT,23.5265,90.8391944444444,4.5,52.313,
N1,bridge,B,ILLIOT BAZER,23.5131944444444,90.8705833333333,28.9,56.006,
N1,bridge,B,KHAT GHOR BOX CULVERT,23.5055555555555,90.8986388888889,5.9,58.838,
N1,bridge,B,BAKRA BOX CULVERT,23.5059444444444,90.9152222222222,3.0,60.83,
N1,bridge,B,MATIA BAZER,23.5038888888888,90.9371388888889,6.0,63.098,
N1,bridge,A,SONAPUR BOX CULVERT,23.5023888888888,90.9420277777777,3.0,63.538,
N1,bridge,B,KARON KHAL SLAB CULVERT,23.4981111111111,90.9660833333333,4.6,66.178,
N1,bridge,A,MILL GHAT BOX CULVERT,23.4951944444444,90.983,4.5,68.04,
N1,bridge,C,CHANDINA- SHAHA PARA RCC GIDER GRIDGE,23.4890555555555,91.0120555555555,23.1,71.156,
N1,bridge,B,CORI PAI BOX CULVERT,23.4812777777777,91.0411388888888,4.6,74.279,
N1,bridge,B,COREPAI BOX CULVERT,23.4820833333333,91.0504444444444,4.6,75.312,
N1,bridge,A,NIMSHAR SLAB CULVERT,23.4815277777777,91.0617777777777,1.5,76.481,
N1,bridge,C,KABILA DUBARCHAR SLAB CULVERT,23.4770277777777,91.0792777777777,1.0,78.382,
N1,bridge,B,NAZIRA BOX CULVERT,23.4778611111111,91.1036666666666,3.0,80.949,
N1,intersection,,,23.4789716,91.118166,,81.846,N102
N1,bridge,A,TIPRA BAZAR BOX CULVERT,23.4788333333333,91.1177499999999,1.4,82.437,
N1,bridge,A,AMTOLI SLAB CULVERT,23.4792777777777,91.1234999999999,2.9,82.989,
N1,bridge,A,DHANPUR RCC GIDER BRIDGE,23.4489444444444,91.14725,23.4,87.713,
N1,bridge,C,Paduar Bazar Bridge,23.4212487704918,91.1678943372365,35.97,91.092,
N1,bridge,B,MOSTAPUR RCC GIDER BRIDGE,23.4131111111111,91.1846111111111,27.9,93.6,
N1,bridge,A,RAZAPARA RCC GIDER BRIDGE,23.4037777777777,91.2175833333333,27.9,97.257,
N1,bridge,A,Suagazi Bridge.,23.3914441,91.2293049,30.48,100.938,
N1,bridge,C,Lalbag Bridge.,23.3683327,91.2471108,22.88,103.456,
N1,bridge,A,CHANSIRI BOXCUIVERT,23.3488055555555,91.2599166666666,14.3,104.753,
N1,bridge,A,MIABAZAR BOX CULVERT,23.336,91.2701111111111,24.0,106.519,
N1,bridge,A,NOYA BAZER BOX CULVERT,23.3241944444444,91.2790833333333,9.2,108.125,
N1,bridge,B,DOLL BARI CULVERT,23.3150277777777,91.2844722222222,19.2,109.289,
N1,bridge,B,DHARMA PUR SLAB CULVERT,23.3104166666666,91.2861111111111,2.6,109.897,
N1,bridge,A,LALGORE BEZER CULVERT,23.3039166666666,91.2887777777777,3.2,110.551,
N1,bridge,A,SUPUYA BOX CULVERT,23.2960277777777,91.2915,13.4,111.509,
N1,bridge,B,BOWCHI BAZAR CULVERT,23.28775,91.2936111111111,4.6,112.469,
N1,bridge,B,AMAN GONG SLAB CULVERT,23.2788333333333,91.3003055555555,6.3,113.717,
N1,bridge,B,RANGAMATIA (1) BOX CULVERT,23.2677777777777,91.3054722222222,3.0,115.052,
N1,bridge,B,RANGOWATIA 2 CULVERT,23.2655277777777,91.3064444444444,3.0,115.326,
N1,bridge,B,NOWA PARA BOX CULVERT,23.26375,91.3067222222222,3.6,115.525,
N1,bridge,B,HARISHARDE CULVERT,23.2588611111111,91.3074166666666,4.5,116.074,
N1,bridge,B,SONAGATI BOX CULVERT,23.2499444444444,91.3091666666666,2.5,117.087,
N1,bridge,B,BALUJURI BOX CULVERT,23.2483888888888,91.3098611111111,19.2,117.269,
N1,bridge,A,BALUZURI 2 CULVERT,23.2453611111111,91.3110555555555,2.6,117.627,
N1,bridge,A,KALIR BAZAR BOX CULVERT,23.2417777777777,91.3123888888888,2.5,118.049,
N1,bridge,B,KALIA BAZER BOC CULVERT,23.2345555555555,91.3131388888888,3.1,118.856,
N1,bridge,B,CHAUDDAGARAM BOX CULVERT,23.2315277777777,91.3131666666666,2.6,119.19,
N1,bridge,A,CHADDAGRAM BAZAR BOX CULVERT,23.2275833333333,91.3133611111111,6.0,119.628,
N1,bridge,B,HAYDAR POLE BOX CULVERT,23.2185833333333,91.3143333333333,14.3,120.634,
N1,bridge,A,FALGUNCORA CULVERT,23.2103888888888,91.3156944444444,6.1,121.567,
N1,bridge,A,ATTOCK GRAM BOX CULVERT,23.2010833333333,91.31675,6.1,122.603,
N1,bridge,C,BOSONTA PUR BOX CULVERT,23.1921111111111,91.3185,6.1,123.681,
N1,bridge,B,BASHONTA PUR (2),23.1866944444444,91.3211944444444,9.5,124.346,
N1,bridge,B,NANKORA BOX CULVERT,23.1774166666666,91.3197222222222,3.1,125.41,
N1,bridge,A,ANDAJER BAZER BOX CULVERT,23.1681944444444,91.3214166666666,9.5,126.448,
N1,bridge,B,DIMATOLI (1) BOX CULVERT,23.1572499999999,91.3224722222222,6.3,127.673,
N1,bridge,B,DIMATOLY (2) BOX CULVERT,23.1481388888888,91.3264166666666,3.5,128.767,
N1,bridge,B,JAGARNATHPUR BOX CULVERT,23.1434444444444,91.3266666666666,6.1,129.291,
N1,bridge,B,JAGOT PUR BOX CULVERT,23.1374444444444,91.3264444444444,3.0,129.955,
N1,bridge,A,HASO BOTHACH BOX CULVERT,23.1291111111111,91.3286666666666,6.5,130.912,
N1,bridge,B,FOKIR BAZAR SLAB CULVERT,23.1235277777777,91.3311111111111,4.5,131.577,
N1,bridge,B,KAKKARA CULVERT,23.1193333333333,91.3330277777777,5.3,132.079,
N1,bridge,A,Chanara Box Culvert,23.1108333333333,91.3381944444444,6.1,133.155,
N1,bridge,B,CHANGARPULL(II) BOX CULVERT,23.1045277777777,91.3414166666666,3.1,133.873,
N1,bridge,B,ADONCORA,23.1006666666666,91.3436944444444,9.5,134.426,
N1,bridge,A,PODOYA BOX CULVERT,23.0962777777777,91.3461111111111,3.1,134.974,
N1,bridge,B,FOEALTPARA BOX CULVERT,23.0901666666666,91.3494166666666,9.25,135.723,
N1,bridge,A,UTTOR KAIEATI CULVERT,23.0850555555555,91.3524166666666,3.5,136.375,
N1,bridge,B,KOKALI BOX CULVERT,23.0809166666666,91.3548611111111,14.2,136.899,
N1,bridge,B,DUTHOSHA BOX CULVERT,23.0733611111111,91.3593888888888,6.1,137.856,
N1,bridge,B,MOHAMMAD ALI MAZAR,23.0638055555555,91.3616111111111,4.0,138.953,
N1,bridge,A,FATAPUR BOX CULVERT,23.0423333333333,91.3654444444444,10.8,141.531,
N1,bridge,A,DEBIPUR SLAB CULVERT,23.0295555555555,91.3655833333333,1.6,142.793,
N1,bridge,A,CHARIPUR CULVERT.,23.01425,91.3759722222222,3.4,144.939,
N1,intersection,,,23.0095556,91.3813604,,145.409,N104
N1,bridge,A,RAMPUR BOX CULVERT,23.003,91.3880833333333,1.5,147.296,
N1,bridge,A,RAMPUR BRIDGE,22.9961666666666,91.4004166666666,23.4,148.151,
N1,bridge,A,Rampur Bridge(R),22.9945936133042,91.4024539137404,22.15,148.174,
N1,bridge,A,.,22.9806944444444,91.4171666666666,1.9,148.495,
N1,bridge,C,Lemua Bridge(L),22.9625,91.4416666666666,98.87,153.843,
N1,bridge,A,FAZAILPUR BOXCULVERT,22.9484444444444,91.4781388888888,1.5,158.031,
N1,bridge,B,Muhuri Bridge(L),22.9497222222222,91.5008333333333,193.22,160.379,
N1,bridge,A,DumGhat Bridge(L),22.9155555555555,91.5252777777777,222.43,165.183,
N1,bridge,A,BUMGAT BOXCULVERT,22.9103611111111,91.5285555555555,6.1,165.825,
N1,bridge,A,BOROYAR PARA SLUB CULVERT,22.9050277777777,91.5312222222222,3.0,166.479,
N1,bridge,A,BAROYARHAT BOX CULVERT,22.8922777777777,91.5353055555555,3.0,167.963,
N1,bridge,A,UTTOR SONAPAR BOX CULVERT,22.8751944444444,91.5406666666666,4.3,169.933,
N1,bridge,A,CHAIRMEN BARI BOX CULVERT,22.8731666666666,91.5414166666666,2.0,170.174,
N1,bridge,A,MADDAM SONAPAR(1) BOX CULVERT,22.8684166666666,91.5431111111111,1.5,170.725,
N1,bridge,A,DHARBAR TILA CULVERT,22.86125,91.5453055555555,4.3,171.554,
N1,bridge,A,MADDUM SONAPHAR-3,22.8596388888888,91.5429722222222,2.0,171.728,
N1,bridge,A,MAMAFOUN ASTANA CULVERT,22.8561666666666,91.5456944444444,1.5,172.122,
N1,bridge,A,MAMAFAKIR ASTANA SLAB CULVERT,22.8551388888888,91.54575,1.5,172.23,
N1,bridge,A,MASTANNAGOR BONCUL(1),22.8485555555555,91.5463333333333,8.5,172.969,
N1,bridge,A,MUSTAU NOGAR(2),22.84525,91.5474722222222,3.0,173.35,
N1,bridge,A,MASTARI HAGOR 3 CULVERT,22.8432777777777,91.5481666666666,1.5,173.585,
N1,bridge,A,MUSTAN NAGAR -4,22.8409166666666,91.5488888888888,3.0,173.859,
N1,bridge,A,RAIPUR BOX CUL-1,22.84075,91.5501388888888,3.0,174.804,
N1,bridge,A,RAIPUR (2) BOX CULVERT,22.8304166666666,91.5506111111111,4.5,175.013,
N1,bridge,C,PURPU DURGAPURE BOX CUL,22.8239722222222,91.55275,12.4,175.785,
N1,bridge,B,MUCHIPOOL CULVERT,22.81125,91.5562222222222,9.5,177.247,
N1,bridge,A,MIRSARAI BOX CUL,22.7934444444444,91.5632222222222,4.5,179.363,
N1,bridge,B,MIRAISORI BRIDGE,22.7813611111111,91.5694999999999,23.2,180.85,
N1,bridge,A,Mirsorai(2) box culvert,22.7733055555555,91.5733055555555,6.0,181.825,
N1,bridge,A,IANAINIPOL BOX CULVERT.,22.7693888888888,91.5755277777777,9.7,182.318,
N1,bridge,A,BOKIMTOLA BOX CULVERT,22.7622222222222,91.5810555555555,4.0,183.296,
N1,bridge,A,VARTAKA BOX CULVERT,22.7526666666666,91.5892777777777,12.9,184.654,
N1,bridge,A,VARTAGIA BOX CULVERT,22.7496944444444,91.5915555555555,3.0,185.058,
N1,bridge,B,BOTHAGIA (-3) BOX CULVERT,22.7433055555555,91.5949722222222,8.1,185.842,
N1,bridge,A,NIAZAMPUR BOX CULVERT,22.7221111111111,91.603,3.0,188.35,
N1,bridge,A,MIRJAPUR BOX CULVERT,22.7165277777777,91.6064444444444,3.0,189.058,
N1,bridge,A,MIRZAPUR (2) BOX CULVERT,22.7159999999999,91.6069166666666,3.0,189.13,
N1,bridge,C,ISAMATI BOX CULVERT,22.7123888888888,91.6090277777777,19.2,189.58,
N1,bridge,A,DUKHIN UTHPAR BOX CULVERT,22.7001944444444,91.6154166666666,19.2,191.107,
N1,bridge,A,VANGGARPOL BOX CULVERT,22.6895555555555,91.6208055555555,4.2,192.408,
N1,bridge,A,BORO KAMALDA BOX CULVERT,22.6850833333333,91.6228055555555,3.2,192.95,
N1,bridge,A,TARAT BOX CULVERT,22.6751666666666,91.6274166666666,6.0,194.149,
N1,bridge,A,Tarial Bazar Culvert,22.6679166666666,91.6300555555555,3.0,194.998,
N1,bridge,A,MIRJA PUR (3) BOX CULVERT,22.6637222222222,91.6320833333333,3.0,195.501,
N1,bridge,A,SATU DURUAR HAT BOX CULVERT,22.6597777777777,91.6349444444444,3.0,196.038,
N1,bridge,A,RONA SORA CULVERT,22.6527777777777,91.6390555555555,3.1,196.925,
N1,bridge,A,NUNA CHARA BOX CULVERT,22.6489722222222,91.641,4.6,197.39,
N1,bridge,A,BOTTOL BOX CULVERT,22.6453333333333,91.6429722222222,12.4,197.846,
N1,bridge,A,KACHAI PATH BOX CULVERT,22.6338888888888,91.6493611111111,3.0,199.279,
N1,bridge,A,KACHAI POTTI BOX CULVERT,22.6320277777777,91.6502777777777,3.0,199.502,
N1,bridge,A,EGOL PUR BOX CULVERT,22.6259166666666,91.654,3.0,200.277,
N1,bridge,B,UTTOR SITAKONDO BAZAR BOX CULVERT,22.6235,91.6553888888889,6.1,200.575,
N1,bridge,A,SITAKUNDA SLAB,22.6208611111111,91.6569722222222,3.0,200.918,
N1,bridge,A,MOHADAB PUR BOX CULVERT,22.6161944444444,91.6599722222222,3.0,201.52,
N1,bridge,A,DULAHAJRA(R),22.6123611111111,91.6620833333333,4.6,201.999,
N1,bridge,A,MADICAL MORE CULVERT,22.6088333333333,91.6640555555555,3.0,202.435,
N1,bridge,A,DOKHIN MOHADEB PUR BOX CULVERT,22.6009444444444,91.6693055555555,2.95,203.457,
N1,bridge,B,KALIAVA BOX CULVERT,22.5995,91.67025,4.5,203.651,
N1,bridge,B,SKM BOX CULVERT(1),22.5941777777777,91.6737333333333,9.3,204.342,
N1,bridge,A,HATILOTA BOX CULVERT,22.5905555555555,91.6754166666666,4.5,204.765,
N1,bridge,C,BAROCONDO BRIDGE,22.5836388888888,91.6784444444444,22.25,205.615,
N1,bridge,A,BAROGINDO CULVERT,22.5779722222222,91.6810833333333,2.5,206.3,
N1,bridge,A,BARO-CUNDHOW BOX CULVERT,22.5731944444444,91.6830555555555,10.2,206.866,
N1,bridge,A,PHPMORE BON CULVERT,22.5667777777777,91.6851388888888,3.0,207.64,
N1,bridge,A,CHARA KANDI BOX CULVERT,22.5640833333333,91.6858611111111,8.2,207.913,
N1,bridge,A,R. R TEXTAIL BOX CULVERT,22.5624722222222,91.6863055555555,4.5,208.1,
N1,bridge,A,OHIDPUR BOX CULVERT,22.5540555555555,91.6884444444444,4.1,209.024,
N1,bridge,B,BARSH BARIA BRIDGE,23.5503333333333,91.6902222222222,21.6,209.514,
N1,bridge,A,SOUTH BALSH KHALI BOX CULVERT,22.5431111111111,91.69475,3.0,210.476,
N1,bridge,A,DOKHIN BASH-KHALI BOX CULVERT,22.5399166666666,91.6960555555555,5.2,210.776,
N1,bridge,A,SOTTANA MONDIR CULVERT,22.5347777777777,91.6982777777777,8.2,211.433,
N1,bridge,A,GULAM JUTE MILE BOX CULVERT,22.5261388888888,91.7024722222222,3.0,212.483,
N1,bridge,B,KYSTELGATE ARCH,22.5207222222222,91.7081388888889,16.3,213.386,
N1,bridge,A,Chotokumir Bridge,22.5165556,91.7065833,41.11,214.807,
N1,bridge,A,ROYL CIMINT GATE CULVETRT,22.5030833333333,91.7132222222222,4.5,215.467,
N1,bridge,A,GORA MARA RCC GIRDER BRIDGE,22.4961388888888,91.7159444444444,17.6,216.196,
N1,bridge,B,GORA MARI BOX CULVERT,22.4869166666666,91.7192777777777,3.0,217.377,
N1,bridge,A,BARAOWLLA BOX CULVERT,22.4819444444444,91.7201944444444,4.5,217.942,
N1,bridge,D,Baro Aulia,22.4690891462562,91.7204999608985,24.33,218.441,
N1,bridge,A,HATIBORI BOX CULVERT,22.4693888888888,91.7250555555555,6.0,219.427,
N1,bridge,D,Modonhat Bridge,22.4624386352,91.7285307,24.32,220.725,
N1,bridge,A,KODOM RASUL BOX CULVERT,22.4450833333333,91.7360277777777,3.0,222.357,
N1,bridge,C,SALAKHARPAD BRIDGE,22.4420555555555,91.7368888888888,26.3,222.687,
N1,bridge,A,HASNA BAD BOX CULVERT,22.4333055555555,91.7403055555555,3.0,223.743,
N1,bridge,A,VATERIE BRIDGE,22.4307222222222,91.7414722222222,40.0,224.053,
N1,bridge,B,DHAMAKHALI BRIDGE,22.4185555555555,91.7504444444444,35.1,225.702,
N1,bridge,A,VATIARI CULVERT,22.3978333333333,91.7576666666666,5.0,228.029,
N1,bridge,A,T. B HOSPITAL GATE BOX CULVERT,22.3920833333333,91.7592222222222,3.0,228.797,
N1,bridge,A,GAMMON BRIDGE,22.3887777777777,91.7605833333333,18.0,229.203,
N1,bridge,A,PAKKA MATA BOX CULVERT,22.3812777777777,91.7653888888888,3.0,230.13,
N1,bridge,A,GLAXO BOX CULVERT,22.3764166666666,91.7704166666666,8.3,230.921,
N1,bridge,A,CORNAIL HAT BOX CULVERT,22.3694722222222,91.7772777777777,3.0,231.966,
N1,bridge,C,BOALIA BOX CULVERT,22.36325,91.8514166666666,4.65,242.016,
N1,bridge,A,Bakulia Bridge,22.3522674714754,91.852622049836,15.8,242.898,
N1,bridge,C,5 No hafez bazar Bridge,22.3395393508599,91.8533871579852,39.67,244.367,
N1,bridge,C,Tulatuli Bridge,22.3357673216494,91.8538536927835,40.38,244.856,
N1,bridge,C,Rajakhali Bridge,22.3349153368556,91.8533979043814,49.31,244.975,
N1,bridge,A,Sha Amanot Bridge,22.3266451369152,91.852759390139,954.5,246.02,
N1,bridge,A,Shikalbaha Bridge,22.3129265129032,91.856181916129,17.3,247.637,
N1,bridge,C,SHIKALBAHA,22.3084166666666,91.8589166666666,15.2,248.499,
N1,bridge,A,SOUTH MITTACHORI,22.3042222222222,91.8621111111111,3.0,249.04,
N1,bridge,B,SHIKALBAHA BOX CULVERT,22.3020833333333,91.8640555555555,5.7,249.348,
N1,bridge,A,KADUMTOLI CULVERT,22.2997777777777,91.8655833333333,3.0,249.674,
N1,bridge,A,ISLAMPUR CULVERT,22.2950555555555,91.8673055555555,1.5,250.215,
N1,bridge,A,NOLBILA CULVERT,22.2925555555555,91.8686388888888,3.0,250.519,
N1,bridge,A,SHIKALBAHA MORE,22.29175,91.8711944444444,3.0,250.841,
N1,bridge,A,SHIKALBAHA BOX CULVERT,22.2937777777777,91.8748055555555,3.0,251.281,
N1,bridge,C,SHIKALBAHA BRIDGE,22.2948333333333,91.8771666666666,116.5,251.538,
N1,bridge,B,SHANTERHAT CULVERT,22.2984722222222,91.8855,3.0,252.506,
N1,bridge,B,SHANTERHAT BOX CULVERT,22.3016111111111,91.8974444444444,3.1,253.777,
N1,bridge,A,KUSUMPUR BOX CULVERT,22.3031111111111,91.9026666666666,3.0,254.333,
N1,bridge,B,MUNSHA BOX CULVERT(L),22.3070555555555,91.9127777777777,10.8,255.505,
N1,bridge,A,MONSHA CULVERT,22.3126111111111,91.9188333333333,3.0,256.378,
N1,bridge,A,UTTOR SONAPUR,22.3159722222222,91.9225555555555,3.0,256.89,
N1,bridge,A,Pirol,22.3136388888888,91.9321944444444,5.3,257.94,
N1,bridge,A,UZIRPUR HIGH SCHOOL,22.3099166666666,91.94775,3.0,259.795,
N1,bridge,C,PATIYA BRIDGE,22.3010833333333,91.9641666666666,50.8,262.116,
N1,bridge,A,PALYA BUS STATION,22.2920833333333,91.9490555555555,12.4,264.369,
N1,bridge,B,Srimi Bridge,22.3137778,91.9322216,61.0,265.483,
N1,bridge,B,KOMOLMUNSHE HAT BOX CULVERT,22.2820833333333,91.9987222222222,14.0,266.424,
N1,bridge,A,KHORNA CULVERT,22.2725277777777,92.0056944444444,3.0,267.818,
N1,bridge,B,Korna Bridge,22.2615671675213,92.0072736555555,15.2,268.954,
N1,bridge,C,AJIMPUR CUL,22.2600555555555,92.0076666666666,9.8,269.199,
N1,bridge,A,MOJAFFARABAD,22.2558055555555,92.0094166666666,9.2,269.721,
N1,bridge,A,MOJAFFORABAD BOX CULVERT,22.2536111111111,92.0115277777777,6.0,269.99,
N1,bridge,A,MOJAFFORABAD,22.2494722222222,92.0152222222222,9.4,270.642,
N1,bridge,A,ROWSONAT CUL,22.2410555555555,92.0215555555555,14.0,271.89,
N1,bridge,A,KANCHANAGAR CUL,22.23725,92.0230277777777,14.0,272.356,
N1,bridge,B,Kanchon Nagar Bridge,22.286583,91.9911108,12.7,273.008,
N1,bridge,B,NORTH JOARA PAKKAR DOKAN,22.2278333333333,92.0261388888889,9.4,273.443,
N1,bridge,A,GASBAREA BOX CULVERT,22.2240833333333,92.0271666666666,14.0,273.878,
N1,bridge,A,GASBAREA COLLEGE BOX CULVERT,22.2171388888888,92.0282222222222,9.2,274.66,
N1,bridge,D,Mazar Point Bridge,22.2622222,92.0070556,50.8,275.943,
N1,bridge,B,KHOLGHAR CUL,22.2060833333333,92.0370277777777,9.2,276.281,
N1,bridge,B,NOYARHAT,22.17525,92.0528611111111,12.3,280.299,
N1,bridge,C,SANGO BRIDGE DOMAJAR,22.1598611111111,92.0674444444444,211.3,282.994,
N1,bridge,A,KATGOR CULVERT,22.1509444444444,92.0695277777777,9.2,284.134,
N1,bridge,A,MOULOVER DOKAN,22.1379722222222,92.0697222222222,12.4,285.58,
N1,bridge,A,PATATR PULL CULVERT,22.1334722222222,92.0700277777777,15.4,286.08,
N1,bridge,A,PATANER PULL(BRIDGE),22.1306666666666,92.0704722222222,34.6,286.378,
N1,bridge,A,NOYAKHALAR MUK,22.1277222222222,92.0711111111111,28.0,286.631,
N1,bridge,A,NOYAKHALARMUK,22.1238611111111,92.0717222222222,15.4,287.144,
N1,bridge,A,NOYA KHALAR MUK (KARANIERHAT) BOX CULVERT,22.1206388888888,92.072,20.4,287.487,
N1,bridge,A,KARANERHAT CULVERT,22.1131944444444,92.0727222222222,5.0,288.329,
N1,bridge,A,KARANERHAT CULVERT,22.0996388888888,92.0744444444444,7.2,289.889,
N1,bridge,A,KOACHIA(MADARBHI),22.0939166666666,92.0795833333333,11.2,290.719,
N1,bridge,A,MITADIGI ACADEMY,22.0845,92.0925555555555,2.0,292.426,
N1,bridge,A,MITADIGI,22.0811388888888,92.0985277777777,12.6,293.134,
N1,bridge,A,RAJGHATA BRIDGE,22.07,92.1039166666666,30.3,294.534,
N1,bridge,A,THAKUR DIGI BOX CULVERT,22.0685277777777,92.1056388888888,2.0,294.77,
N1,bridge,A,KHORIANAGAR BRIDGE,22.0643333333333,92.1071388888888,38.8,295.295,
N1,bridge,A,NOYA PARA BOX CULVERT,22.06125,92.1077777777777,2.5,295.625,
N1,bridge,A,PODUA NOYA PARA BOX CULVERT,22.0569722222222,92.1092222222222,8.2,296.135,
N1,bridge,A,PODUA BAZAR BOX CULVERT,22.05225,92.1092777777777,12.6,296.647,
N1,bridge,A,PODUA BAZAR BOX CULVERT,22.0486944444444,92.1083611111111,6.0,297.034,
N1,bridge,A,BARO AWLIA(R),22.0442222222222,92.1074444444444,13.64,297.569,
N1,bridge,A,TALOCKDNR PARA BOX CULVERT,22.0443888888888,92.1073333333333,2.5,298.405,
N1,bridge,A,AMIRABAD BOX CULVERT,22.0317222222222,92.1040277777777,2.5,299.057,
N1,bridge,A,Amirabad Bridge,22.0287013636363,92.1034293272727,68.8,299.434,
N1,bridge,A,AMIRABAD LOHAGOR BOX CULVERT,22.0263055555555,92.1026111111111,2.0,299.756,
N1,bridge,A,AMIRABAD LOHAGORA BOX CULVERT,22.0204166666666,92.1015277777777,10.0,300.406,
N1,bridge,A,LOHAGORA L.S BOX CULVERT,22.0076111111111,92.0926666666666,3.0,302.237,
N1,bridge,A,DIGIRPARK BOX CULVERT,22.00375,92.09025,12.6,302.729,
N1,bridge,A,DIGIRPAR BOX CULVERT,21.9998888888888,92.0881666666666,6.2,303.237,
N1,bridge,A,ZADUNAGOR FILLING BOX CULVERT,21.9950833333333,92.0873611111111,3.0,303.782,
N1,bridge,A,ZADUNAPUR SHAPIR FILLING STATION -(2) BOX CULVERT,21.995,92.0873888888888,12.4,303.793,
N1,bridge,A,KHASMOHAL ADUNAICR PC GIDER BRIDGE,21.9913055555555,92.0861666666666,58.8,304.217,
N1,bridge,A,ZADUNAGOR BUS STATION BOX CULVERT,21.9889722222222,92.0853333333333,14.2,304.449,
N1,bridge,A,Aadunagor bridge,21.9861944444444,92.0836666666666,24.2,304.857,
N1,bridge,A,HATIAR PULL PC GIDER BRIDGE,21.9812222222222,92.0802499999999,22.5,305.527,
N1,bridge,A,HATIAR PULL BOX CULVERT,21.9798888888888,92.0779444444444,18.7,305.794,
N1,bridge,A,SHIX DAR PARA BOX CULVERT,21.9789166666666,92.0747777777777,3.5,306.139,
N1,bridge,A,MUSKAMPANI PARA BOX CULVERT,21.9732499999999,92.0673333333333,2.5,307.229,
N1,bridge,A,AODU NAGOR (2) BOX CULVERT,21.9673611111111,92.0634722222222,1.5,307.981,
N1,bridge,A,RATAR KUL- SONTI BRIDGE,21.9620555555555,92.0634166666666,22.4,308.652,
N1,bridge,A,BONPUKR PARA BOX CULVERT,21.9591666666666,92.0653055555555,8.2,309.038,
N1,bridge,A,BON PUKUL PARA BOX CULVERT,21.9515277777777,92.0673888888888,3.0,309.355,
N1,bridge,A,SANTI RCC GIDER BRIDGE,21.9515277777777,92.0679722222222,22.4,309.971,
N1,bridge,A,SANTI BOX CULVERT,21.9451388888888,92.0670833333333,1.4,310.723,
N1,bridge,A,BRICK FIELD BOX CULVERT,21.9354444444444,92.0624166666666,4.5,311.886,
N1,bridge,A,BACK FILD BOX CULVERT,21.9334444444444,92.0615555555555,9.3,312.138,
N1,bridge,A,AZIZNAGOR FOREST BOX CULVERT,21.9311944444444,92.0601388888888,4.5,312.354,
N1,bridge,A,AZIZ NOGOR FOREST BOX CULVERT,21.9296666666666,92.0594166666666,4.7,312.609,
N1,bridge,A,AZIZNAGOR BOX CULVERT,21.9179444444444,92.0598333333333,2.0,313.947,
N1,bridge,A,AZIZ NOGAR BOX CULVERT,21.9162499999999,92.0601388888888,3.0,314.144,
N1,bridge,A,AZIZ NAGOR 1,21.9128333333333,92.0607222222222,4.0,314.502,
N1,bridge,A,AZIZ NAGOR 2,21.9128333333333,92.0607222222222,9.2,315.009,
N1,bridge,A,HARBHANG CHOR,21.8908333333333,92.0595833333333,13.64,317.001,
N1,bridge,A,GHOIL MARA BOX CULVERT,21.8809166666666,92.059,9.3,318.11,
N1,bridge,A,HARBANG,21.8748055555555,92.0590833333333,3.0,318.796,
N1,bridge,A,HARBANG,21.8625833333333,92.0594444444444,3.0,320.189,
N1,bridge,A,HARBANGCHORA,21.8598055555555,92.0603055555555,56.4,320.513,
N1,bridge,A,ALIPUR BOX CULVERT,21.8526666666666,92.0608611111111,14.3,321.305,
N1,bridge,A,HARBANG,21.8506111111111,92.0609722222222,2.1,321.536,
N1,bridge,A,HAR BAG BOX CULVERT,21.8426388888888,92.0638611111111,4.5,322.5,
N1,bridge,A,HAR BAG BOX CULVERT,21.8400555555555,92.0651111111111,3.0,322.823,
N1,bridge,A,ATKOTA,21.8337777777777,92.0685,15.8,323.619,
N1,bridge,A,AKOTA BAZAR BOX CULVERT,21.8280277777777,92.0713333333333,7.3,324.331,
N1,bridge,A,BODOI TOLA RCC GIDER BRIDGE,21.8256944444444,92.0723888888888,46.0,324.607,
N1,bridge,A,BODAITALI BOX CULVERT,21.8208888888888,92.0740833333333,12.4,325.153,
N1,bridge,A,BODOITOLI BOX CULVERT,21.818,92.0739444444444,14.0,325.49,
N1,bridge,A,BANIYAR CHORA,21.8031388888888,92.0773055555555,14.0,327.312,
N1,bridge,A,NOL BELA-1 BOX CULVERT,21.7872777777777,92.0789722222222,20.6,329.084,
N1,bridge,A,NOL BELA BOX CULVERT,21.7864444444444,92.0791111111111,21.0,329.181,
N1,bridge,B,NOLBELA BOX CULVERT,21.7836666666666,92.0793055555555,14.2,329.499,
N1,bridge,A,DIDDA BAZAR BOX CULVERT,21.7729166666666,92.0835833333333,15.7,330.931,
N1,bridge,C,MATHAMUHURI BRIDGE,21.7712222222222,92.0817777777777,300.0,331.259,
N1,bridge,B,BANDI BAZAR BOX CULVERT,21.7392222222222,92.0829166666666,9.3,335.192,
N1,bridge,A,KUMARIKOOL BOX CULVERT,21.7377222222222,92.0835833333333,14.0,335.38,
N1,bridge,A,PASIYAKALI BOX CULVERT,21.7315833333333,92.0838611111111,5.2,336.054,
N1,bridge,A,PASIYAKALI (2),21.7301388888888,92.0838611111111,38.8,336.237,
N1,bridge,A,HASIRUGIGI,21.7228888888888,92.0835277777777,12.6,337.019,
N1,bridge,A,CHOHAJANYA (1),21.7080555555555,92.0801111111111,12.8,338.859,
N1,bridge,A,CHOHAJANIYA (2),21.7014722222222,92.0785833333333,9.3,339.648,
N1,bridge,A,JASJARI BRIDGE,21.6743333333333,92.0767499999999,59.6,342.77,
N1,bridge,A,DULAHAJARA (SAFARI PARK),21.6701666666666,92.0759722222222,14.0,343.243,
N1,bridge,A,DULAHAJARA CULVERT,21.6618888888888,92.0750277777777,3.5,344.209,
N1,bridge,A,DULAHAJAR BRIDGE,21.6590277777777,92.0752222222222,54.4,344.531,
N1,bridge,C,BOYRAGIR KHIL,21.6496944444444,92.0733611111111,61.0,345.592,
N1,bridge,A,PAGOLARIBIL,21.6468055555555,92.0735277777777,4.5,345.911,
N1,bridge,B,KHUTAKHALI,21.6213333333333,92.0724722222222,1.45,349.092,
N1,bridge,B,khutakhali bazar,21.6170277777777,92.0678333333333,45.3,349.759,
N1,bridge,A,FULCHARI (NEWPARA),21.6101111111111,92.0638888888888,7.0,350.674,
N1,bridge,A,FULCHARI (NEWPARA),21.6065555555555,92.0621944444444,5.2,350.99,
N1,bridge,A,FULCHARI CULVERT,21.6016388888888,92.0619166666666,9.3,351.628,
N1,bridge,A,FULCHARI BAZAR,21.5976666666666,92.0618611111111,14.0,352.064,
N1,bridge,A,NAPITE KHALI CULVERT,21.5925833333333,92.0612777777777,1.4,352.641,
N1,bridge,C,NAPITE KHALI,21.5887222222222,92.0634166666666,4.5,353.162,
N1,bridge,A,EAST NAPITL KHAL BOX CULVERT,21.58475,92.0651111111111,2.5,353.694,
N1,bridge,A,NAEK KHALI BOX CULVERT,21.5769999999999,92.0695277777777,12.4,354.739,
N1,bridge,A,KHODIA BARI PRIMARY BOX CULVERT,21.5642777777777,92.0702777777777,9.5,356.261,
N1,bridge,A,ISLAMABAD KHODIABARI BOX CULVERT,21.5619722222222,92.0698055555555,4.8,356.517,
N1,bridge,A,ISLAMABAD KHODIA BARI BOX CULVERT,21.5610833333333,92.0693888888888,7.0,356.631,
N1,bridge,A,Eidgaon Bazar Bridge,21.617166,92.0679993,46.0,357.264,
N1,bridge,A,Goro Bazar Bridge,21.5470666065573,92.0668953754098,44.63,358.03,
N1,bridge,A,SHAT GOREA PARA BOX CULVERT,21.5284166666666,92.0651944444444,14.0,360.345,
N1,bridge,A,KALIRCHARA BOX CULVERT,21.5265,92.0655,8.0,360.551,
N1,bridge,A,KALIRCHARA BAZAR BOX CULVERT,21.5235833333333,92.0656111111111,15.4,360.89,
N1,bridge,A,KALIRCHAR,21.5221666666666,92.0659166666666,5.0,361.043,
N1,bridge,A,RASHIDNAGAR,21.5161944444444,92.0681944444444,3.0,361.751,
N1,bridge,A,ROSHIDNAGAR CULVERT,21.5128888888888,92.07,2.5,362.168,
N1,bridge,A,DOLERCHARA CULVERT,21.5085,92.07175,7.5,362.691,
N1,bridge,A,DOLERCHARA CULVERT,21.5070555555555,92.0729722222222,12.4,362.889,
N1,bridge,A,ROSHIDNAGAR (2),21.4976111111111,92.0765277777777,14.0,364.056,
N1,bridge,A,"ROSHIDNAGAR U,R CULVERT",21.4966944444444,92.0771666666666,14.1,364.184,
N1,bridge,A,JOARIANALA CULVERT,21.4798333333333,92.0937222222222,7.2,366.98,
N1,bridge,A,JOARIANALA,21.4768055555555,92.0957777777777,14.0,367.362,
N1,bridge,A,JORIANALA,21.4751666666666,92.0971388888888,3.0,367.6,
N1,bridge,A,Joarianala Bazar Bridge,21.470055530337,92.1006402232209,57.65,368.129,
N1,bridge,B,JOARIANALA CULVERT,21.4668611111111,92.1025555555555,14.0,368.703,
N1,bridge,A,MITA CHARI BOX CULVERT,21.4511944444444,92.0993888888888,9.2,370.799,
N1,bridge,A,RAMU HOSPITAL GATE,21.444,92.1013055555555,1.5,371.64,
N1,bridge,A,Mitacmari Ramu Bridge,21.4418389714285,92.1007083571428,58.6,371.848,
N1,bridge,A,MARULA (WEST),21.4375555555555,92.0985277777777,3.0,372.43,
N1,bridge,A,MARULA BOX CULVERT,21.4339722222222,92.0974444444444,2.5,372.782,
N1,bridge,A,RAMU BRAC OFFICE,21.4310555555555,92.0958888888888,7.2,373.192,
N1,bridge,A,RAMU BY PASS MORE,21.4290833333333,92.0954722222222,3.5,373.424,
N1,bridge,A,RAMU MOUR BOX CULVDERT,21.4283611111111,92.0953611111111,12.8,373.598,
N1,bridge,A,ROMA CALLAGE BOX CULVERT,21.4279444444444,92.0895833333333,18.8,374.081,
N1,bridge,A,ROMA TECHIPUL,21.4270555555555,92.0839166666666,8.2,374.655,
N1,bridge,A,SAMBAR PUL CULVERT,21.42675,92.0804166666666,7.4,375.035,
N1,bridge,A,CHAKMARKOOL,21.4263888888888,92.0766944444444,12.4,375.416,
N1,bridge,A,CHAKMAR KOOL BOX CULVERT,21.4273333333333,92.0703611111111,9.4,376.062,
N1,bridge,A,KHURUTIA BOX CULVERT,21.4270555555555,92.0632777777777,2.0,376.931,
N1,bridge,A,KHURULIA CULVERT,21.4273888888888,92.0607777777777,6.8,377.189,
N1,bridge,A,KHURULIA SCHOOL BOX CULVERT,21.4278333333333,92.0582222222222,16.6,377.519,
N1,bridge,A,KHURULIA SCHOOL BOX CULVERT,21.4280833333333,92.0553888888888,18.6,377.753,
N1,bridge,A,KHURULIA CHAIRMAN PARA BOX CULVERT,21.4281666666666,92.0528611111111,7.2,378.02,
N1,bridge,A,SARKAR PARA BRIDGE,21.4276388888888,92.0484166666666,13.0,378.492,
N1,bridge,A,WEST DOVGE BOX CULVERT,21.4296666666666,92.0439722222222,10.9,379.004,
N1,bridge,A,MUKTAR KUL,21.4298055555555,92.0394722222222,9.2,379.504,
N1,bridge,A,BAKKHALI BRIDGE,21.4293888888888,92.0315833333333,148.5,380.346,
N1,bridge,A,MOHURI RARA BOX,21.4301944444444,92.0300833333333,3.5,380.615,
N1,bridge,A,RABAR DAM BOX,21.4299444444444,92.0279444444444,10.3,380.759,
N1,bridge,A,LINK ROAD CULVERT,21.4261666666666,92.0236666666666,9.0,381.374,
N1,bridge,C,BESIC AREA,21.4226388888888,92.0275833333333,4.5,381.985,
N1,bridge,C,BASIC ARIA (1),21.4221944444444,92.0279444444444,11.3,382.055,
N1,bridge,C,KAMBIR GONA,21.4192777777777,92.0323611111111,2.4,382.649,
N1,bridge,B,HAMBIR GONA (1),21.4163888888888,92.0353333333333,7.2,383.098,
N1,bridge,C,HAMBIR GONA-(2),21.4156666666666,92.03675,8.1,383.269,
N1,bridge,A,KANAR PARA,21.4136111111111,92.0393888888889,10.9,383.632,
N1,bridge,A,SHORAR COOL,21.4121388888888,92.0422777777777,8.3,384.001,
N1,bridge,B,SOUTH MITTA CHORI,21.4106111111111,92.0452222222222,8.3,384.358,
N1,bridge,B,SOUTH MITHACHARI,21.4102777777777,92.0340361111111,2.2,384.788,
N1,bridge,A,SOUTH MITHACHARI,21.4103611111111,92.05075,8.2,384.978,
N1,bridge,A,SOUTH MITTA CULVERT,22.4096388888888,92.0525555555555,1.9,385.237,
N1,bridge,A,SOUTH MITHACHARI,21.4079722222222,92.0560555555555,3.0,385.614,
N1,bridge,A,SOUTH MITHACHARI,22.4069444444444,92.0568888888888,2.8,385.78,
N1,bridge,D,SHAMMOTI PARA,21.4059722222222,92.0594444444444,10.0,386.07,
N1,bridge,A,CHALATOLI,21.4039444444444,92.0627222222222,1.6,386.494,
N1,bridge,A,CHALIYATOLI,21.4010277777777,92.066,3.6,386.968,
N1,bridge,C,RAKALAN PARA STEEL BEAM AND RCC SLAB,21.3985277777777,92.0666388888888,8.0,387.23,
N1,bridge,C,CHALIYA TOLI -2 ARCH MASONRY,21.3977777777777,92.0669444444444,1.3,387.398,
N1,bridge,A,PANCHORI,21.3934166666666,92.0682499999999,8.3,387.843,
N1,bridge,C,PANCHORA STEEL BEAM AND RCC SLAB,21.389,92.0686944444444,22.0,388.328,
N1,bridge,C,PANAR CHORH -3 SLAB CULVERT,21.3874444444444,92.0697222222222,2.7,388.565,
N1,bridge,B,PANCHARA SLAB CULVERT,21.3858611111111,92.0702777777777,2.7,388.733,
N1,bridge,C,PANCHARA SLAB CULVERT,21.3851944444444,92.0704166666666,2.9,388.886,
N1,bridge,C,PANCHARA SLAB CULVERT,21.3845555555555,92.0705833333333,1.8,388.956,
N1,bridge,B,PANAR CHORA SLAB CULVERT,21.3825555555555,92.0713333333333,2.8,389.101,
N1,bridge,B,PANCHORI SLAB CULVERT,21.3814444444444,92.071,1.8,389.258,
N1,bridge,A,PANCHARA SLAB CULVERT,21.3812777777777,92.0711944444444,1.7,389.282,
N1,bridge,A,PANCHORI,21.3788611111111,92.0701944444444,0.8,389.538,
N1,bridge,B,DALA -2 SLAB CULVERT,21.3785277777777,92.0702777777777,1.5,389.684,
N1,bridge,A,DALA-2 SLAB CULVERT,21.3772222222222,92.0705833333333,1.5,389.724,
N1,bridge,C,DALA-3 SLAB CULVERT,21.3766111111111,92.0718055555555,2.2,389.899,
N1,bridge,A,DALA SLAB CULVERT,21.3753333333333,92.07275,1.5,390.047,
N1,bridge,A,DALA SLAB CULVERT,21.3748333333333,92.0735833333333,3.0,390.142,
N1,bridge,C,DHALLA SLAB CULVERT,21.3743333333333,92.0753888888888,2.4,390.356,
N1,bridge,A,PANAR CHORI SLAB CULVERT,21.3740555555555,92.0765277777777,1.3,390.506,
N1,bridge,A,PANAR HORA SLAB CULVERT,21.37325,92.0773055555555,1.3,390.595,
N1,bridge,C,PANCR CHAR SLAB CULVERT,21.3715277777777,92.0784166666666,1.3,390.814,
N1,bridge,C,TULA BAGAN SLAB CULVERT,21.3697222222222,92.0796666666666,1.3,391.031,
N1,bridge,A,TULA BAGAN BOX CULVERT,21.3678333333333,92.0802777777777,1.3,391.255,
N1,bridge,A,TELA BAGAN SLAB CULVERT,21.3675833333333,92.0806944444444,1.3,391.373,
N1,bridge,A,TULA BAGAN.,21.3656666666666,92.0813611111111,1.3,391.521,
N1,bridge,B,PARARHORA CULVERT,21.3643055555555,92.0814444444444,1.3,391.664,
N1,bridge,C,TULA BAGUN,21.3615833333333,92.0806666666666,7.1,391.997,
N1,bridge,B,TULA BAGAN,21.3614166666666,92.0801111111111,1.3,392.093,
N1,bridge,B,TOLA BAGAN,21.3585,92.0790833333333,1.6,392.422,
N1,bridge,A,TULA BAGAN,21.3573888888888,92.0791111111111,2.5,392.526,
N1,bridge,A,NORTH-CONIAPARA,21.3563055555555,92.0790555555555,1.3,392.619,
N1,bridge,C,NORTH CONIAPARA,21.3553611111111,92.0791944444444,2.2,392.742,
N1,bridge,A,NORTH CONIA PARA BOX CULVERT,21.3528611111111,92.0783888888888,4.0,393.038,
N1,bridge,C,Modomconiara,21.41025,92.0480552,21.5,393.764,
N1,bridge,C,CONIA PARA,21.3416944444444,92.079,11.3,394.307,
N1,bridge,A,KHONIA POLONG,21.3382777777777,92.0786944444444,14.1,394.681,
N1,bridge,B,KHONIA POLONG.,21.33125,92.0792777777777,2.3,395.328,
N1,bridge,C,DOA PATONG,21.3298333333333,92.0788333333333,24.1,395.64,
N1,bridge,C,JASOYA PALONG,21.3241111111111,92.0853611111111,45.6,396.596,
N1,bridge,C,JASOYA PALONG RCC GIDER BRIDGE,21.3206111111111,92.0900833333333,5.0,397.144,
N1,bridge,D,MORICHIA,21.318,92.0921111111111,11.2,397.591,
N1,bridge,B,Jasoya check post.,21.3175555555555,92.0929444444444,1.3,397.679,
N1,bridge,C,MARIECHA BAZAR,21.3125277777777,92.0962777777777,49.3,398.406,
N1,bridge,B,MORICHIA PALONG,21.3039444444444,92.09675,2.4,399.452,
N1,bridge,C,MORICHIA PALONG,21.2989166666666,92.0976666666666,2.3,400.027,
N1,bridge,D,SHAPUR STEEL BEAM AND RCC SLAB,21.2955,92.0994722222222,61.3,400.46,
N1,bridge,A,SHAPUR,21.2840555555555,92.1005833333333,14.1,401.752,
N1,bridge,B,COTBAZR MUSLIM HOS,21.2828333333333,92.1006944444444,11.0,401.89,
N1,bridge,A,COURT BAZAR,21.2791944444444,92.1020277777777,10.3,402.323,
N1,bridge,A,RATNAPALANG,21.2695277777777,92.1067499999999,14.0,403.495,
N1,bridge,A,CHADIRIKHANA,21.2696111111111,92.1067777777777,23.5,403.509,
N1,bridge,A,CHADIRIKHANA,21.268,92.1087222222222,23.5,403.79,
N1,bridge,C,EJILA,21.2646666666666,92.1134999999999,11.1,404.393,
N1,bridge,C,HIZOLIA BRIDGE,21.2645,92.1143055555555,50.6,404.487,
N1,bridge,C,MODDO RAJAPALONG,21.2623333333333,92.1161666666666,11.5,404.774,
N1,bridge,C,JADIMURA BRIDGE,21.2563888888888,92.1229444444444,6.6,405.728,
N1,bridge,A,JADI MORA (2) CULVERT,21.2551666666666,92.1241666666666,2.4,405.969,
N1,bridge,A,JADIMORA (3),21.2539722222222,92.1264444444444,17.0,406.218,
N1,bridge,A,JADIMORA (1),21.2518888888888,92.1292777777777,2.4,406.517,
N1,bridge,C,WEST OGALA,21.2506388888888,92.1308333333333,11.1,406.791,
N1,bridge,C,OKYIA STATION,21.2480555555555,92.1341944444444,8.5,407.239,
N1,bridge,C,UKLIA-SHAHABMARKAT,21.2451944444444,92.1383333333333,2.4,407.785,
N1,bridge,B,UKHIYA BAZAR,21.2421388888888,92.1415,20.7,408.235,
N1,bridge,A,P. F PARA SLAB,21.2261388888888,92.1611944444444,2.0,411.81,
N1,bridge,C,KUTUB PALONG,21.2241666666666,92.1612777777777,11.3,412.008,
N1,bridge,B,KUTU - PALONG MOSZID SLAB,21.2166111111111,92.16275,2.2,412.931,
N1,bridge,C,KOSHO - BINNA - BRIDGE,21.2147222222222,92.1645277777777,10.9,413.235,
N1,bridge,C,KASHO - BINNAI SLAB,21.2143333333333,92.1664444444444,2.1,413.43,
N1,bridge,A,KATU PALLANG SLAB,21.2126944444444,92.1678333333333,2.0,413.66,
N1,bridge,A,KUTUNG PALANG SLAB,21.2103611111111,92.1679166666666,1.8,413.901,
N1,bridge,A,KOSUKONA,21.20975,92.1684166666666,2.2,414.0,
N1,bridge,A,BALAKHALI TV CENTER,21.2011666666666,92.1704444444444,6.4,415.056,
N1,bridge,A,BALUKHALI-2 SLAB,21.1989722222222,92.1703333333333,2.2,415.296,
N1,bridge,A,BALUKHALI KASTOM,21.1964444444444,92.1706388888888,3.1,415.574,
N1,bridge,A,BALUKHALI OLD BUS STAND,21.1923333333333,92.1694444444444,39.3,416.057,
N1,bridge,A,BAKUHHALI KASHAMIA,21.1906666666666,92.16825,3.0,416.354,
N1,bridge,B,BALUKHALI,21.1866111111111,92.1638888888888,9.4,416.966,
N1,bridge,D,BALUKHAKI,21.1858888888888,92.1610277777777,15.4,417.29,
N1,bridge,A,GOGU GONA,21.1788888888888,92.1572777777777,1.2,418.231,
N1,bridge,C,THANGKHALI BOX CULVERT,21.1741388888888,92.1555555555555,3.1,418.76,
N1,bridge,B,THANG KHALI BOX CULVERT,21.1720555555555,92.1552777777777,3.1,419.036,
N1,bridge,C,THANG KHALI BRIDGE,21.16975,92.1545833333333,48.8,419.278,
N1,bridge,A,Changkhali Bridge,21.1724828063829,92.1552940329787,9.4,419.63,
N1,bridge,B,CHANG KHALI BRIDGE,21.1650277777777,92.1523055555555,31.1,419.88,
N1,bridge,B,JAM TOLI BRIDGE,21.1627222222222,92.1521388888889,9.4,420.093,
N1,bridge,A,JAM TOLI BOX CULVERT,21.1625555555555,92.1522777777777,3.0,420.18,
N1,bridge,B,DAIM PARA BRIDGE,21.1603055555555,92.1525,9.3,420.406,
N1,bridge,C,DAIM PARA CULVERT,21.1593055555555,92.1525833333333,3.0,420.537,
N1,bridge,A,DAIM PARA CULVERT,21.1585555555555,92.1525833333333,4.6,420.606,
N1,bridge,C,DAIM PARA CULVERT,21.1555833333333,92.1526666666666,1.25,420.952,
N1,bridge,A,DAIM PARA CULVERT,21.1538333333333,92.1527777777777,3.0,421.156,
N1,bridge,C,PALONG KHALI CULVERT,21.1521666666666,92.1535,3.0,421.358,
N1,bridge,C,PALONG KHALI BAZAR (1),21.1473333333333,92.1574444444444,9.4,422.081,
N1,bridge,C,Palong Khali Bazar Bridge,21.2152778,92.1649722,15.2,422.447,
N1,bridge,C,PALONG KHALI RCC GIDER BRIDGE,21.1415555555555,92.1598888888889,58.0,422.784,
N1,bridge,B,KARUN TOLI RCC GIDER BRIDGE,21.1381388888888,92.1648888888889,3.3,423.442,
N1,bridge,C,GIRA TALI RCC GIDER BRIDGE,21.1378055555555,92.1670833333333,15.4,423.67,
N1,bridge,A,GIVATOLI RCC GIDER BRIDGE,21.1376111111111,92.1682222222222,3.3,423.804,
N1,bridge,A,GIVA TOLI RCC GIDER BRIDGE,21.1372777777777,92.1706388888888,3.3,424.075,
N1,bridge,A,GIVA TOLI BOX CULVERT,21.1371111111111,92.1727222222222,1.2,424.271,
N1,bridge,C,GIVATOLI RCC GIDER BRIDGE,21.1369444444444,92.1737222222222,32.0,424.395,
N1,bridge,D,Kata Khali Bridge,21.1965552,92.1708604,12.3,424.577,
N1,bridge,C,ULI BANIA BOX CULVERT,21.1354444444444,92.1770833333333,1.2,424.783,
N1,bridge,B,KHARA KANDI RCC GIDER BRIDGE,21.0501666666666,92.18075,15.2,425.267,
N1,bridge,A,ULUBANIA RCC GIDER BRIDGE,21.1663888888888,92.1822777777777,4.8,425.455,
N1,bridge,C,ULIBANIA BOX CULVERT,21.1321388888888,92.1845555555555,1.3,425.715,
N1,bridge,A,DMONIR GONA RCC GIDER BRIDGE,21.131,92.1856944444444,3.3,425.882,
N1,bridge,B,BALUR KHALI -(1) RCC GIDER BRIDGE,21.1267777777777,92.1902777777777,4.7,426.555,
N1,bridge,C,BALU KHALI -2 BOX CULVERT,21.1242222222222,92.1918611111111,1.2,426.881,
N1,bridge,B,BALU KHALI-3 BOX CULVERT,21.1241944444444,92.1918888888889,7.9,426.915,
N1,bridge,A,W HIME KANG BOX CULVERT,21.1231388888888,92.1925277777777,1.2,427.041,
N1,bridge,A,WHIKE KANG BOX CULVERT,21.1221388888888,92.1931666666666,1.2,427.154,
N1,bridge,B,WHIKE KANG BOX CULVERT,21.1214166666666,92.1935555555555,1.2,427.231,
N1,bridge,A,wheke kang (1),21.1190555555555,92.196,6.4,427.622,
N1,bridge,A,WHIKE KANG BRIDGE,21.1175555555555,92.1965555555555,3.35,427.804,
N1,bridge,C,MOA EX-KANG-BAZAR,21.1166944444444,92.1968611111111,13.0,427.918,
N1,bridge,A,HOA EX KANG BAZAE,21.1161944444444,92.1969444444444,3.2,427.969,
N1,bridge,C,HOACX KANG BARAR,21.1158055555555,92.197,73.3,428.095,
N1,bridge,A,AMTULI BOX CULVERT,21.11175,92.20075,3.4,428.578,
N1,bridge,A,TASSI-PARA BAR,21.1101111111111,92.2032222222222,2.8,428.89,
N1,bridge,B,TAS SE BRIDGE HOANGK,21.1089444444444,92.2045555555555,12.8,429.081,
N1,bridge,A,LAMBA-BIL PORA,21.1063333333333,92.2070277777777,1.2,429.491,
N1,bridge,A,LAMBABIL MIDDLE PARA,21.1053333333333,92.2074166666666,1.2,429.615,
N1,bridge,A,LAMBABIL MIDDLE,21.1044722222222,92.2075,1.2,429.719,
N1,bridge,A,LAMBA - BIL - (1) BOX CULVERT,21.1026111111111,92.2077777777777,2.8,429.912,
N1,bridge,A,LAM BA BIL (2) BOX CULVERT,21.1013055555555,92.2079444444444,2.8,430.072,
N1,bridge,A,LAMBA BIL (3) BOX CULVERT,21.0995833333333,92.2091666666666,1.2,430.287,
N1,bridge,C,LAMBA BIL BOX,21.0972777777777,92.2106111111111,1.2,430.582,
N1,bridge,A,UNCHI - PRANG BRIDGE,21.0940277777777,92.2117777777777,34.2,430.978,
N1,bridge,A,ON SIFAPAING BOX CULVERT,21.0923611111111,92.2122777777777,3.0,431.167,
N1,bridge,A,UNCHING OPLONG CULVERT (1),21.0902222222222,92.2129722222222,1.2,431.398,
N1,bridge,A,KUTUB DIA PARA (1) CULVERT,21.0865277777777,92.2150555555555,2.7,431.877,
N1,bridge,A,KUTUB DIA PARA CULVERT,21.0861388888888,92.2153055555555,2.7,431.946,
N1,bridge,A,KUTUB - DIA PARA (3),21.0839166666666,92.2162777777777,4.2,432.19,
N1,bridge,A,KANGOR PARA,21.082,92.21675,2.7,432.411,
N1,bridge,A,KANGOR PARA MOZGID,21.0798055555555,92.2171388888889,1.2,432.62,
N1,bridge,A,KHAN GIOR PARA (1),21.0784444444444,92.2188333333333,2.8,432.865,
N1,bridge,A,KHANGOR PRAMARY (2),21.0778888888888,92.2190277777777,1.2,432.924,
N1,bridge,B,KHAN GOR PARA BRIDGE,21.0765555555555,92.221,14.0,433.178,
N1,bridge,A,RHANCHOR PARA BOX CULVERT,21.0745833333333,92.2220833333333,1.2,433.441,
N1,bridge,A,KHANCHOR PARA (2),21.0727777777777,92.2231666666666,1.0,433.665,
N1,bridge,A,KHANCHOR PARA- BOX CULVERT,21.0718611111111,92.2241944444444,1.0,433.826,
N1,bridge,A,NOYA PARA (1) BOX CULVERT,21.0692777777777,92.2246111111111,3.0,434.124,
N1,bridge,C,NOYA PARA (1) BRIDGE,21.0669166666666,92.2246666666666,6.1,434.37,
N1,bridge,A,NAYAPARA,21.0651666666666,92.2245833333333,5.8,434.573,
N1,bridge,A,NOYA PARA,21.0626944444444,92.2256944444444,1.3,434.831,
N1,bridge,B,GIMON KHALI BRIDGE,21.0621111111111,92.2265,5.8,435.013,
N1,bridge,C,Gim-mogari Bridge,21.0695363333333,92.2245687666666,7.5,435.22,
N1,bridge,A,NINA BAZAR BOX CULVERT,21.0550555555555,92.2265555555555,1.2,435.748,
N1,bridge,B,NOYA BAZAR BRIDGE,21.05125,92.2301388888888,30.9,436.388,
N1,bridge,C,NOYA BAZAR CULVERT,21.0514444444444,92.2325,1.2,436.6,
N1,bridge,B,NAYA BAZAR BRIDGE,21.0508888888888,92.2333333333333,9.4,436.789,
N1,bridge,C,Naya Bazar(3) Bridge,21.1165,92.1969163,11.8,437.063,
N1,bridge,C,KHARANG KHALI - BOX CUVERT (1),21.0445833333333,92.2358055555555,2.8,437.484,
N1,bridge,C,KHARANG KHAIL,21.0404166666666,92.2373333333333,1.2,437.961,
N1,bridge,C,MOULIVI BAZAR FISHARI BRIDGE,21.0358888888888,92.2398055555555,31.7,438.506,
N1,bridge,C,MOULOVI BAZAR BOX CULVERT (1),21.0320277777777,92.2412777777777,1.2,439.007,
N1,bridge,C,MOULOVI BAZAR BOX CULVERT,21.0300833333333,92.2411111111111,1.2,439.235,
N1,bridge,A,ALI AXBAR PARA BOX CULVERT,21.0262222222222,92.2418333333333,6.2,439.579,
N1,bridge,C,Nila-Hoab Rabg Bridge,21.097333,92.2106111,32.1,440.028,
N1,bridge,A,NILLA BOX CULVERT (1),21.0169444444444,92.2439722222222,4.4,440.724,
N1,bridge,A,NILA. BARAR BOX CULVERT,21.0151388888888,92.2452777777777,2.9,440.977,
N1,bridge,A,NILA - DORGA- PARA-(1) BOX,21.01,92.2492777777777,2.8,441.666,
N1,bridge,A,NILA DOGA PARA BOX CULVERT,21.0083333333333,92.2510277777777,2.8,441.974,
N1,bridge,A,NAT MURA PARA BOX CULVERT,21.00675,92.2519444444444,1.9,442.161,
N1,bridge,C,Chowdhory Para Bridge,21.0728327,92.2232216,45.6,443.024,
N1,bridge,B,RONGI HALI BOX CULVERT,20.9943333333333,92.2546111111111,2.8,443.564,
N1,bridge,C,Rongi-Khali Bridge,21.0650556,92.2245271,12.5,444.315,
N1,bridge,C,ALA KHALI KUNA PARA,20.9775277777777,92.2506666666666,29.9,445.478,
N1,bridge,C,LADA BAZAR BOX CULVERT,20.9696111111111,92.2486388888888,1.2,446.435,
N1,bridge,A,Ladapara Bridge,21.0407497,92.2374997,36.6,446.71,
N1,bridge,A,NAYAPARA BOX CULVERT,20.9649166666666,92.2514722222222,2.8,447.084,
N1,bridge,B,NOYAPARA RCC GIDER BRIDGE,20.9623888888888,92.2529166666666,30.4,447.401,
N1,bridge,A,NAYA PARA BOX CULVERT,20.9582222222222,92.2543055555555,1.2,447.893,
N1,bridge,B,MOSINNI RCC GIDER BRIDGE,20.9568611111111,92.2548055555555,8.8,448.054,
N1,bridge,A,NOYA PARA CULVERT,20.9530277777777,92.2565277777777,1.2,448.391,
N1,bridge,A,NOYA PARA CULVERT,20.9533055555555,92.2563333333333,1.2,448.481,
N1,bridge,A,NOYA PARA (MUSJID) BOX CULVERT(L),20.9530277777777,92.2565,1.2,448.581,
N1,bridge,A,NOYA PARA (BRAC SCHOOL),20.9495277777777,92.2578888888888,9.2,448.926,
N1,bridge,C,Jadirghat Bridge,21.0226104,92.2420552,41.75,449.101,
N1,bridge,A,JADIMORH BOX CULVERT,20.9458888888888,92.2601388888888,1.2,449.439,
N1,bridge,A,Jadimura bridge,21.0169993,92.2440274,7.5,449.7,
N1,bridge,C,DOMDO MIA BRIDGE,20.9373888888888,92.2624444444444,37.2,450.446,
N1,bridge,A,DONDO MIA BOX CULVERT,20.9351944444444,92.2628055555555,1.5,450.599,
N1,bridge,A,DONDO MIA BOX CULVERT,20.9348888888888,92.2630555555555,2.7,450.759,
N1,bridge,A,DOMMO MIA BOX CULVERT,20.9330555555555,92.2635277777777,1.2,450.943,
N1,bridge,C,DHANDO MIA,20.9296111111111,92.264,38.6,451.328,
N1,bridge,B,DONDO MIA CHAK POST BRIDGE,20.9238888888888,92.2600277777777,51.0,451.984,
N1,bridge,B,DOMDO MIA BRIDGE,20.9196666666666,92.2684444444444,13.5,452.561,
N1,bridge,B,DOMDO MIA,20.9191944444444,92.2686944444444,13.5,452.624,
N1,bridge,A,DONDOMIA,20.9176944444444,92.2693888888888,2.7,452.793,
N1,bridge,C,DONOMIA,20.9155555555555,92.2706666666666,34.8,453.05,
N1,bridge,D,DONMIA,20.9133611111111,92.2720833333333,2.7,453.372,
N1,bridge,C,Karumtoli Bridge,20.9778049,92.25075,37.6,453.95,
N1,bridge,A,KARUNTON BOX CULVERT,20.9068611111111,92.2766111111111,1.2,454.219,
N1,bridge,A,Karumtoli choto(1) Bridge,20.91799614,92.2691008942857,6.0,454.33,
N1,bridge,C,Sholo Bandar Teknaf Bridge,20.9167064980392,92.2698571431372,6.0,454.498,
N1,bridge,B,KAKUM TOLI CHACK BOX CULVERT,20.9031388888888,92.2788611111111,1.2,454.673,
N1,bridge,A,KARUMTOLI (3)BOX CULVERT,20.9025833333333,92.2793611111111,2.8,454.769,
N1,bridge,B,KARUMTOLI,20.9003888888888,92.2805555555555,34.3,455.062,
N1,bridge,A,KARUM TOLI BOX CULVERT,20.8996111111111,92.2815,1.3,455.206,
N1,bridge,A,Karumtoli(2) Bridge,20.9104284959641,92.2741396026905,29.3,455.366,
N1,bridge,A,KARUM TOLI RCC GIDER BRIDGE,20.8979722222222,92.2833333333333,10.6,455.447,
N1,bridge,A,KARAN TOLI RCC GIDER BRIDGE,20.8978611111111,92.2839166666666,10.6,455.496,
N1,bridge,A,BAROY TOLI RCC GIDER BRIDGE,20.8974722222222,92.2852777777777,30.0,455.688,
N1,bridge,A,BORY TOLI SLAB CULVERT,20.8972222222222,92.2863888888889,2.8,455.765,
N1,bridge,A,BORYTOLI SLAB CULVERT,20.8952222222222,92.2878611111111,2.8,455.975,
N1,bridge,A,BARITOLI BOX CULVERT,20.8947777777777,92.2881944444444,2.8,456.064,
N1,bridge,C,BAROY TOLI RCC GIDER BRIDGE,20.8935555555555,92.28925,17.5,456.164,
N1,bridge,C,BAROY TOLI RCC GIDER BRIDGE,20.8923611111111,92.2895833333333,8.3,456.287,
N1,bridge,A,Baraytoli (3) Bridge,20.9032027737864,92.2790446582524,6.1,456.359,
N1,bridge,B,NAITAN PARA RCC GIDER BRIDGE,20.8932222222222,92.2911666666666,23.0,456.549,
N1,bridge,B,NAITOM PARA RCC GIDER BRIDGE,20.8895833333333,92.2986388888888,15.1,457.365,
N1,bridge,A,NAITANG PARA RCC GIDER BRIDGE,20.8859444444444,92.2992777777777,9.0,457.751,
N1,bridge,A,Naitom Para(4) Bridge,20.9482774,92.2589167,9.0,458.213,
N1,bridge,C,Eskahal Bridge,20.9436941,92.2603056,37.3,458.799,
N1,bridge,A,BUS STAND TEKNAF BOX CULVERT,20.8689444444444,92.2982222222222,1.5,459.681,
N1,bridge,C,BUS STAND TEKNAF BOX CULVERT,20.8672777777777,90.2983888888888,1.5,459.866,
N1,bridge,C,Yaknat Bridge,20.934333,92.26325,35.9,460.113,
N1,sourcesink,,"End of Road at Shapla Chattar ,Teknaf Meet with Z1098 &Z1099.",20.8629167,92.298083,,462.254,
N102,sourcesink,,Start of road from N1 Mainamati,23.4789716,91.1181938,,0.0,
N102,bridge,A,PORISPUR BOX CULVERT,23.4865277777777,91.1133611111111,3.0,0.984,
N102,bridge,A,Brorechon,23.49375,91.1064722222222,1.5,2.059,
N102,bridge,A,SHABAR BAZAR,23.4963888888888,91.1059444444444,1.6,2.363,
N102,bridge,A,ZUMUR BOX CULVERT,23.4977222222222,91.1056388888888,1.4,2.511,
N102,bridge,B,DEAB POR SLAB CULVERT,23.51125,91.0981944444444,2.5,4.249,
N102,bridge,C,RAMPUR,23.5324166666666,91.0835277777777,3.75,7.036,
N102,bridge,A,Barura Bridge,23.5421941,91.0742493,17.8,8.475,
N102,bridge,A,KONSENOGOR BOX CUL,23.5501944444444,91.06625,3.0,9.685,
N102,bridge,A,CONSUNAGAR SLAB,23.5551666666666,91.0600833333333,0.9,10.53,
N102,bridge,A,HATAMARA BOX CULVERT.,23.5661388888888,91.0553055555555,3.2,11.876,
N102,bridge,C,HATIMARA (2)SLAB CULVERT,23.5668888888888,91.0549999999999,3.0,11.966,
N102,bridge,B,KAKORTOLA CULVERT,23.5745833333333,91.0511666666666,6.0,12.96,
N102,bridge,A,BUGRABUS BOX CULVERT,23.5827222222222,91.0352777777777,5.7,15.109,
N102,bridge,A,BHIRALLA BOX CULVERT,23.5880277777777,91.0157777777777,3.0,17.318,
N102,bridge,C,BARRA BOX CULVERT,23.5912222222222,91.00775,6.2,18.211,
N102,bridge,A,BARRA (3)BOX CULVERT,23.5945,90.9996666666666,6.0,19.122,
N102,bridge,A,BARRA 2 BOX CUL,23.5966388888888,90.9970555555555,2.5,19.479,
N102,bridge,B,BARHA BOX CULVERT,23.6079722222222,90.9883888888888,4.6,21.137,
N102,bridge,A,Boro Alompur Arch Masonary,23.61,90.9858333333333,1.3,21.478,
N102,bridge,A,DABIDDAR CULVERT,23.6101666666666,90.9854722222222,2.8,21.519,
N102,bridge,A,SAIRCHOR BOX CULVERT,23.6165,90.9769444444444,9.6,22.669,
N102,bridge,A,Bangl Bari Bridge,23.623916,90.9726382,33.45,23.564,
N102,bridge,A,Compani Ganj Bridge,23.6341663,90.9707771,113.9,24.808,
N102,bridge,A,Nagorpar Box Culvert,23.6430555555555,90.9710833333333,9.4,25.791,
N102,bridge,A,KATAKHALI BOX CULVERT,23.6504722222222,90.9713333333333,9.3,26.614,
N102,bridge,B,BAKON NAGAR BOX CULVERT,23.6576111111111,90.9800277777777,6.1,27.867,
N102,bridge,C,Gafur nagar Bridge,23.6587222,90.9820271,51.25,28.106,
N102,bridge,A,DHARIA BOX CULVERT,23.6611111111111,90.9860833333333,12.3,28.594,
N102,bridge,A,BAHARNAGOR BOX CULVERT,23.6646944444444,90.9918055555555,6.0,29.3,
N102,bridge,C,MANJUR BRIDGE,23.6658333333333,90.9937777777777,52.0,29.509,
N102,bridge,A,C. M. B BAZAR BOX CUVERT,23.6675,90.9961388888889,12.6,29.841,
N102,bridge,B,YOUSUF PUR BRIDGE,23.6712222222222,91.0019722222222,28.8,30.562,
N102,bridge,B,YOUSUFPUR (2) BOX CULVERT,23.6738611111111,91.0061388888888,4.5,31.082,
N102,bridge,B,USUP POR-2 BOX CULVERT,23.6776388888888,91.0076388888888,6.0,31.27,
N102,bridge,C,USUP - PUR BOX CULVERT,23.6781111111111,91.0126944444444,12.6,31.894,
N102,bridge,C,SAMOLSHAL CHOR BOX CULVERT,23.6820833333333,91.0186944444444,9.5,32.655,
N102,bridge,C,NAYAPARA BOX CULVERT,23.6841388888888,91.0218333333333,9.2,33.038,
N102,bridge,A,SHALGANG BOX CULVERT,23.6874444444444,91.0265,9.4,33.647,
N102,bridge,C,BORAIPARA BOX CULVERT,23.6891666666666,91.0290277777777,3.0,33.965,
N102,bridge,A,BROSALGAR CULVERT,23.69225,91.0331388888888,9.5,34.515,
N102,bridge,C,SONG CHAIL RCC GIDER BRIDGE,23.6954444444444,91.0381388888888,35.5,35.141,
N102,bridge,B,SHANKAIL BOX CULVERT,23.7000277777777,91.0442222222222,9.3,35.941,
N102,bridge,A,HAJIBARI BOX CULVERT,23.7014722222222,91.04625,6.5,36.207,
N102,bridge,A,MOULSBI BARI CULVERT,23.70425,91.0501666666666,12.2,36.703,
N102,bridge,A,BRAMMON PARA BOX CULVERT,23.70525,91.0514166666666,12.2,36.877,
N102,bridge,C,MUDUPPUR BOX CULVERT,23.7083055555555,91.0553055555555,12.6,37.398,
N102,bridge,A,MUDOBPUR CULVERT,23.7103611111111,91.0576944444444,4.8,37.737,
N102,bridge,A,MIRPUR CULVERT,23.7116944444444,91.0593055555555,4.65,37.955,
N102,bridge,A,MURPUR BOX,23.7148333333333,91.0632777777777,12.5,38.49,
N102,bridge,A,TALIPARA BOX CULVERT,23.7176944444444,91.0666666666666,6.2,38.952,
N102,bridge,B,MOKIMPUR RCC GRIDER BRIDGE,23.7220277777777,91.0720833333333,17.2,39.689,
N102,bridge,A,KalaMoira Bridge,23.7250827,91.0765271,54.31,40.291,
N102,bridge,B,KALAMURIA BOX CULVERT,23.7328888888888,91.0811666666666,12.3,41.26,
N102,bridge,A,CHOW MONI BOX CULVERT,23.7514166666666,91.0935555555555,12.2,43.708,
N102,bridge,A,CHOTICHOIMOHARI RCC GIDER BRIGDE,23.7554166666666,91.0981666666666,46.5,44.355,
N102,bridge,B,MIRPUKUR CULVERT,23.7572777777777,91.1003888888888,18.6,44.664,
N102,bridge,A,GOLA SHAR BOX CULVERT,23.7610555555555,91.1047777777777,6.0,45.274,
N102,bridge,A,Kharer bazar Bridge,23.7531944,91.1148611,17.0,46.694,
N102,bridge,C,DAROGABARI BOX CULVERT,23.7749444444444,91.1206666666666,12.0,47.512,
N102,bridge,B,MONKASAR BOX CULVERT,23.7816388888888,91.1286388888888,12.6,48.613,
N102,bridge,B,MONKASHA RCC GRIDER BRIDGE,23.7844444444444,91.1331944444444,16.06,49.168,
N102,bridge,A,SOYDABAD BOX CULVERT,23.7913611111111,91.14375,12.2,50.488,
N102,bridge,A,Saidabad Bridge,23.4600278,91.1468052,20.6,50.862,
N102,bridge,B,TNLLAK BOX CULVERT,23.8006666666666,91.1501666666666,19.0,51.794,
N102,bridge,B,Bizna Bridge,23.80675,91.1513056,49.75,52.474,
N102,bridge,B,CHATURA CULVERT,23.8141666666666,91.153,36.8,53.317,
N102,bridge,B,TANTO CULVERT,23.8297777777777,91.1551388888889,8.7,55.063,
N102,bridge,A,MATIA PARA BOX CULVERT,23.8322777777777,91.1555,4.6,55.346,
N102,bridge,A,Dhorkhar Bridge,23.8450274,91.1571389,167.14,56.766,
N102,bridge,A,PUJANESHAR PC GIRDER,23.8605833333333,91.1552777777777,34.2,58.681,
N102,bridge,B,AWARON CULVERT,23.8631666666666,91.1520277777777,3.0,59.118,
N102,bridge,C,Akhand Bridge,23.8663333,91.1479997,16.38,59.655,
N102,bridge,B,MODINAGOR RCC GIDER BRIDGE,23.8747222222222,91.1408611111111,27.3,60.841,
N102,bridge,A,SULTANPUR BOX CULVERT,23.8870277777777,91.1341388888889,5.5,62.377,
N102,bridge,A,SULTANPUR BOX CULVERT,23.8924166666666,91.1313333333333,5.6,63.039,
N102,bridge,C,Sultanpur Uttar Bridge,23.8946386,91.1300827,21.25,63.311,
N102,bridge,C,Radhika Bridge,23.9056389,91.1258327,50.25,64.608,
N102,bridge,A,OUSURA BOX CULVERT,23.9166388888888,91.1226666666666,5.6,65.72,
N102,bridge,A,UZURA CULVERT,23.9237777777777,91.1198333333333,5.6,66.71,
N102,bridge,B,RAMRAIL BOX CULVERT,25.92775,91.1185555555555,12.0,67.164,
N102,bridge,D,RAMRAIL BRIDGE.,23.9349722222222,91.1161388888888,48.4,68.007,
N102,bridge,B,VADHUGLAR BOX CULVERT,23.9496111111111,91.1167,3.0,69.643,
N102,bridge,C,Kath toli old Bridge,23.9551944,91.1163889,90.6,70.285,
N102,bridge,A,Dakhin Pouro tala bridge,23.9679353219827,91.1013978806034,32.15,73.118,
N102,bridge,B,GHATARA BRIDGE,24.0016666666666,91.1095833333333,18.3,76.824,
N102,bridge,A,SUHILPUR MIRHATI BOX CULVERT,24.0098888888888,91.1093611111111,3.0,77.75,
N102,bridge,B,MOLABI BARI CULVERT,24.01325,91.1097222222222,6.5,78.132,
N102,bridge,A,SUHIL PUR BOX CULVERT,24.0173611111111,91.0769444444444,7.0,78.587,
N102,bridge,B,UTTOR SHOHIL PUR CULVERT,24.0275277777777,91.1125,3.0,79.737,
N102,bridge,A,BATHBARIA BOX CULVERT,24.0458611111111,91.1146944444444,3.0,81.779,
N102,sourcesink,,Meet with N 2 at Sanail,24.0506111,91.1146667,,82.682,
N104,sourcesink,,Intersection with Z1031,23.0096667,91.3994163,,0.0,
N104,bridge,A,Shasaugtachha culvert,23.4698611111111,91.1629166666666,3.65,0.349,
N104,bridge,B,S.S.SK ROAD SLAB CULVERT,23.0093333333333,91.3952222222222,2.7,0.417,
N104,bridge,C,PAZGACIA SLAB CULVERT,23.0098888888888,91.3737222222222,2.7,2.63,
N104,bridge,B,MATIARA SLAB CULVERT,23.0045833333333,91.3544999999999,2.7,4.693,
N104,bridge,A,SILONIA BOX CVLVERT,22.9836944444444,91.339,1.9,7.882,
N104,bridge,B,Selonia bridge,22.9825827,91.3375274,89.23,8.075,
N104,bridge,C,AMIR GOAN SLAB CULVERT,22.9715833333333,91.3343333333333,2.8,9.34,
N104,bridge,A,BAKER BAZAR BOX CULVERT,22.9610833333333,91.3330277777777,3.0,10.51,
N104,bridge,A,Matuvhuia Bridge,22.9538611,91.326166,48.71,11.616,
N104,bridge,C,CHONG ARPULL BOX CULVERT,22.9465833333333,91.3168611111111,3.0,12.865,
N104,bridge,C,DAGHANBUIYA SLAB CULVERT,22.9381388888888,91.2974722222222,4.4,15.221,
N104,bridge,A,RAMNAGAR BRIGE,23.9411944444444,91.2764722222222,6.0,17.41,
N104,bridge,A,RAMNAGAR SIAB CULVERT,22.9440277777777,91.2643333333333,2.5,18.717,
N104,bridge,B,RAMNAGAR SLAB CULVERT (3),22.9443888888888,91.2619722222222,12.6,18.96,
N104,bridge,C,BHUYAIN DIGI CULVERT,22.9530277777777,91.242,3.1,21.289,
N104,bridge,C,Kallyandi Bridge,22.9576944,91.2321104,9.25,22.483,
N104,bridge,B,SANBAG CULVERT,22.9573611111111,91.2218611111111,2.8,23.538,
N104,bridge,A,SOMIR BAZAR SLAB CULVERT,22.9545555555555,91.20775,2.5,25.02,
N104,bridge,C,SHIBPUR SLAB CULVERT,22.9524166666666,91.1870277777777,2.7,27.179,
N104,bridge,A,BAROPAL SLAB CULVERT,22.9496944444444,91.1749722222222,9.1,28.457,
N104,bridge,B,SONYGOFULL CULVERT,22.9479722222222,91.1571666666666,3.0,30.328,
N104,bridge,C,PASHIMSIB PUR,22.9477777777777,91.1471111111111,6.0,31.358,
N104,bridge,B,HAZIPUR CULVERT,22.9468888888888,91.1404166666666,3.2,32.042,
N104,bridge,A,Choumohni Bazar(Left),22.946,91.1233888888888,20.5,33.81,
N104,bridge,B,krimpur Bridge,22.9448333333333,91.1099722222222,38.2,35.203,
N104,bridge,A,ALIPUR BOX CULVERT,22.9393611111111,91.1041666666666,3.1,36.331,
N104,bridge,A,CONTRACTOR MOSJIDE BOX CULNERT,22.9360277777777,91.1041666666666,6.5,36.7,
N104,bridge,C,DARMACHPUR CULVERT,22.9313888888888,91.1040833333333,3.2,37.221,
N104,bridge,B,MAMZAN BIBO BOX CULVERT,22.9226666666666,91.1027222222222,18.6,38.197,
N104,bridge,B,AKLASPUR CULVERT,22.91775,91.10225,3.0,38.747,
N104,bridge,D,BARIPOLE BOX,22.9066388888888,91.1007499999999,6.2,39.991,
N104,bridge,A,KABOWA BAZAR BOX CULVERT,22.9002222222222,91.0993055555555,9.4,40.719,
N104,bridge,C,TOWN HALL MORE CULVERT,22.8675,91.0969166666666,1.0,44.384,
N104,bridge,A,BOXSI MAZIR BOX CULVERT,22.8633888888888,91.0968055555555,6.4,44.84,
N104,bridge,A,GAPTANG BOX CULVERT,22.8610277777777,91.09625,6.5,45.109,
N104,bridge,B,POKIR PUR BOX CULVERT,22.8570277777777,91.0968888888888,3.5,45.558,
N104,bridge,D,Dotter Hut Bridge,22.8461277044117,91.0971399698529,16.39,47.345,
N104,bridge,A,OUTTOR SONAPUR BOX CULVERT,22.8344166666666,91.1005,2.0,48.19,
N104,bridge,B,UTTOR SONAPUR SLAB CULVERT,22.8324722222222,91.1005555555555,2.0,48.417,
N104,bridge,A,SONAMIPUR BOX CULVERT,22.8280833333333,91.1012222222222,3.0,48.939,
N104,sourcesink,,Meet with Z1441& Z1405 at Sonapur.,22.8257493,91.1014444,,49.63,
N105,sourcesink,,"Starts of road from N1,Dhaka teknaf road at Madanpur.",23.6904163,90.5466108,,0.0,
N105,bridge,C,MODONPUR,23.6906666666666,90.54675,12.8,0.024,
N105,bridge,A,MODONPUR COLLEGE,23.6985555555555,90.5515277777777,6.25,1.1,
N105,bridge,A,LALADI CULVERT,23.7073055555555,90.5607777777777,6.1,2.313,
N105,bridge,A,KHAJLA PUR,23.7161666666666,90.5701111111111,6.0,3.769,
N105,bridge,A,KAZI PARA,23.7276944444444,90.5834444444444,6.1,5.641,
N105,bridge,A,BOSTROL CULVERT,23.7309999999999,90.5872777777777,6.0,6.178,
N105,bridge,A,BRAAMAN,23.8456388888888,90.5400277777777,10.4,16.585,
N105,bridge,A,BRAMMAN KALY,23.8351388888888,90.5399444444444,6.2,16.791,
N105,bridge,A,SHIMOLIA,23.8393888888888,90.5361666666666,6.0,17.39,
N105,bridge,A,MAZIPARA,23.8492777777777,90.5269722222222,4.6,18.846,
N105,bridge,A,CHAPRA,23.8601944444444,90.5179722222222,4.5,20.374,
N105,bridge,A,CHAPRY,23.86225,90.5168055555555,4.5,20.625,
N105,bridge,A,POLKHAN,23.868,90.5121666666666,4.5,21.44,
N105,bridge,A,POLKHAN,23.86925,90.5102777777777,6.2,21.674,
N105,bridge,A,GULLEN,23.8714444444444,90.5068055555555,4.6,22.104,
N105,bridge,A,GOLLAR,23.8795555555555,90.5024444444444,6.0,23.164,
N105,bridge,A,KEAFON,23.8855,90.4848055555555,4.6,23.992,
N105,bridge,A,MADANPUR,23.8859722222222,90.4924444444444,6.0,24.561,
N105,bridge,A,ULAKOLA,23.899,90.4815277777777,209.0,26.697,
N105,bridge,A,PATARTEK,23.9028333333333,90.48025,4.5,27.14,
N105,bridge,A,SHAMARSINGH,23.9069722222222,90.4788055555555,4.5,27.625,
N105,bridge,A,SHAMARSINGH,23.9116388888888,90.4734444444444,4.5,28.385,
N105,bridge,A,MADANPUR,23.91375,90.4706666666666,4.5,28.751,
N105,bridge,A,Ulukhola Bridge,23.8858911498789,90.4927756864406,174.75,29.116,
N105,bridge,A,NARAYAN ROLI,23.9214166666666,90.4645833333333,5.0,29.868,
N105,bridge,A,NARAYAN ROLI,23.9240277777777,90.4591666666666,5.0,30.49,
N105,bridge,A,SHAMMUDDA,23.9308333333333,90.4516944444444,4.5,31.612,
N105,bridge,A,SHAMMUDDA,23.9326944444444,90.4491388888889,1.0,31.941,
N105,bridge,A,SAMUDAA,23.9340277777777,90.4473055555555,3.0,32.178,
N105,bridge,A,SHAMUDDA,23.9363333333333,90.4440555555555,3.4,32.594,
N105,bridge,A,DIRAJGRAM,23.9495833333333,90.4148333333333,5.0,34.758,
N105,bridge,A,DIRAJSHRAM,23.9492222222222,90.4141111111111,5.0,34.834,
N105,bridge,A,DIRASURAM,23.95075,90.4106388888889,13.0,35.204,
N105,bridge,A,BASURA,23.9521944444444,90.4038888888889,3.0,35.821,
N105,bridge,A,BASURA,23.9562222222222,90.4012777777777,4.5,36.521,
N105,bridge,A,JUGITALA,23.9701388888888,90.3972777777777,7.0,38.12,
N105,bridge,A,MOGORKHAL,23.9735833333333,90.3940277777777,6.0,38.653,
N105,bridge,A,MOGORKHAL,23.9761388888888,90.3900277777777,3.0,39.09,
N105,bridge,A,MONGLEKHAN,23.9760833333333,90.3875,3.0,39.372,
N105,bridge,A,MADANPUR,23.9772777777777,90.3844166666666,3.0,39.716,
N105,bridge,A,BOGRA,23.9774722222222,90.3783055555555,3.0,40.338,
N105,bridge,A,BOGRA-2,23.9774444444444,90.3753888888888,3.0,40.635,
N105,bridge,A,BOGRA-3 BOX CULVERT,23.9780277777777,90.3716111111111,3.0,41.036,
N105,bridge,A,NOWZAR,23.9826944444444,90.3670555555555,3.0,41.73,
N105,bridge,A,NOWZAR-2,23.9863333333333,90.3628888888888,3.0,42.318,
N105,sourcesink,,"B.Bridge 83 km,Tangail 60 km / End of Road  Intersection at N4 at Joydebpur.",23.9895274,90.3582222,,48.87,
N2,sourcesink,,Road Start from N1 at Katchpur,23.7059167,90.5214438,,0.0,
N2,intersection,,,23.7059167,90.5214438,,0.0,N1
N2,bridge,C,Jatramura Bridge,23.7182771,90.5156944,36.7,1.511,
N2,intersection,,,23.785333,90.5685549,,11.464,N1
N2,bridge,C,Gola kandail Bridge.,23.7853886,90.5691104,19.0,11.482,
N2,bridge,A,SHAWGHAT BOX CULVERT,23.7891944444444,90.5742222222222,3.9,12.18,
N2,bridge,B,ADURI BOX CULVERT,23.7976111111111,90.5808055555555,4.9,13.366,
N2,bridge,B,ADURI BOX CULVERT,23.804,90.5869999999999,3.5,14.333,
N2,bridge,A,BANTI BOX CULVERT,23.8140555555555,90.5946111111111,3.4,15.677,
N2,bridge,C,Banti Bridge,23.8240271,90.6041389,72.15,16.19,
N2,bridge,C,PATCHRUKHI CULVERT,23.8241388888888,90.6040555555555,3.1,17.138,
N2,bridge,A,PUTCHRUCLAI CULVERT,23.8295555555555,90.6092222222222,4.5,17.966,
N2,bridge,B,SON PARA,23.8361944444444,90.6158055555555,8.3,18.944,
N2,bridge,A,FURINGDIA BOX CULVERT,23.8419722222222,90.6224722222222,8.3,19.895,
N2,bridge,A,PURINDA BAZAR BOX CULVERT,23.8469166666666,90.6272222222222,4.0,20.514,
N2,bridge,A,PURINDHA BOX CULVERT,23.8496944444444,90.6315555555555,8.0,21.168,
N2,bridge,B,SHAT GRAM BOX CULVERT,23.8553055555555,90.6386666666666,4.0,22.144,
N2,bridge,A,BAGBARI BOX CULVERT,23.8551666666666,90.6522777777777,4.0,23.556,
N2,bridge,A,RAINADI BOX CULVERT,23.8548888888888,90.6586944444444,4.0,24.2,
N2,bridge,A,KANDA PARA BOX CULVERT,23.8544444444444,90.6634722222222,4.0,24.708,
N2,bridge,A,NAWPARA BOX CULVERT,23.8539166666666,90.6673055555555,2.0,25.107,
N2,bridge,A,KURIRPARA BOX CULVERT,23.8780555555555,90.6666111111111,2.5,28.442,
N2,bridge,A,CHAITABOR BOX CULVERT,23.8821388888888,90.6665833333333,2.5,28.943,
N2,bridge,A,Panchdona Bridge,23.8943052,90.6717771,31.72,30.514,
N2,bridge,B,BOLTIRISH KANE CULVERT,23.8943055555555,90.6718888888888,3.0,31.026,
N2,bridge,C,SHIKANDI BOX CULVERT,23.8951111111111,90.67425,2.5,31.279,
N2,bridge,A,UTTAR BAYANDA CULVERT,23.9048611111111,90.6851111111111,3.6,32.969,
N2,bridge,A,BAGDI BOX CULVERT,23.9130277777777,90.6893055555555,12.7,35.205,
N2,bridge,A,BAGDI - 2 CULVERT,23.9183611111111,90.6939444444444,3.0,35.565,
N2,bridge,A,Basail Bridge,23.9307216,90.7045833,27.4,36.488,
N2,bridge,B,VALARAGAR CULVERT,23.9343333333333,90.7076666666666,1.5,37.022,
N2,bridge,C,BALANAGAR BRIDGE,23.9307222222222,90.7046388888889,69.5,37.61,
N2,bridge,A,KARAR CHAR CULVERT,23.9427222222222,90.7099166666666,3.0,38.015,
N2,bridge,A,KARAR CHAR CULVERT (2),23.9391666666666,90.71,12.6,38.348,
N2,bridge,A,NAGOR BARI CULVERT,23.9528055555555,90.7148333333333,5.5,39.241,
N2,bridge,A,PATUAR PAR CULVERT,23.9555277777777,90.7162777777777,3.4,39.589,
N2,bridge,A,BARAITULA BUSTANT CULVERT,23.9598333333333,90.7186388888888,3.0,40.114,
N2,bridge,B,SAYED NAGAR CULVERT,23.9655277777777,90.7218055555555,3.5,40.564,
N2,bridge,A,SAYEA NAGAR (2) CULVERT,23.9658055555555,90.7218055555555,3.0,40.819,
N2,bridge,A,SAYED NAGOR CULVERT,23.97,90.7244722222222,1.8,41.375,
N2,bridge,B,SAYED NAGOR CULVERT,23.9723888888888,90.7265833333333,14.1,41.734,
N2,bridge,B,SAYED NAGOR CULVERT,23.9753333333333,90.7291388888889,8.3,42.153,
N2,bridge,A,ITAKHOLA CULVERT,23.9778611111111,90.7314166666666,2.0,42.51,
N2,bridge,A,ITAKHOLO CULVERT,23.9803888888888,90.7348055555555,12.6,42.998,
N2,bridge,A,SHASPUR CULVERT,23.9818055555555,90.7395555555555,2.5,43.523,
N2,bridge,A,GASIRDIA CULVERT,23.9854722222222,90.7458611111111,4.0,44.274,
N2,bridge,A,GASHIRDIA BOX CULVERT,23.9216111111111,90.6967777777777,4.1,45.151,
N2,bridge,B,SIMBI RCC GIRDER,23.9880277777777,90.7473611111111,105.15,45.931,
N2,bridge,A,KHARAMARA BOX CULVERT,23.9956111111111,90.7626111111111,10.3,46.33,
N2,bridge,A,KUNDAR PARA (1) BOX CULVERT,23.9936666666666,90.7590277777777,3.9,46.511,
N2,bridge,A,KUNDARPARA (2) BOX CULVERT,23.9974722222222,90.7661111111111,2.0,46.765,
N2,bridge,A,HAZI BAGAN CULVERT,24.00025,90.7714722222222,9.6,47.384,
N2,bridge,A,SHARIPULAIA BOX CULVERT,23.9963888888888,90.7640555555555,9.5,48.264,
N2,bridge,A,SHRISTIGAR BOX CULVERT,24.007,90.7893055555555,9.55,49.335,
N2,bridge,A,HAGIBAGAN BOX CULVERT,24.0089166666666,90.7925277777777,3.0,49.755,
N2,bridge,A,CHITAMNI BOX CULVERT,24.0167777777777,90.8044444444444,5.4,51.24,
N2,bridge,A,CHAITANUE BOX CULVERT,24.0204444444444,90.8101388888888,11.0,51.976,
N2,bridge,A,KAMARTEK BOX CULVERT,24.0262777777777,90.81925,7.3,53.089,
N2,bridge,A,GABTALI BOX CULVERT,24.0288055555555,90.8230833333333,7.25,53.591,
N2,bridge,A,MARJAL BOX CULVERT,24.0326666666666,90.8295555555555,3.5,54.354,
N2,bridge,A,MARGAL BOX CULVERT,24.0365277777777,90.8356944444444,4.0,55.117,
N2,bridge,A,BARMANERTEK BOX CULVERT,24.0385833333333,90.8391388888888,4.0,55.547,
N2,bridge,A,Bitimargal Bridge,24.040083,90.8429163,18.9,55.967,
N2,bridge,A,BITIMARGAL BOX CULVERT,24.0415,90.8485833333333,3.5,56.559,
N2,bridge,A,SHIMELTALA BOX CULVERT,24.0418611111111,90.8502499999999,3.5,56.722,
N2,bridge,B,CHARABAG BOX CULVERT,24.0425833333333,90.8536666666666,3.5,57.111,
N2,bridge,C,Bridge Over Arial,24.0469163,90.8621389,241.61,58.035,
N2,bridge,C,Bridge Over Arial,24.0469163,90.8621389,141.61,58.112,
N2,bridge,B,Shibpur Bridge,24.0484163,90.8641111,40.6,58.369,
N2,bridge,A,BARAICHA CULVERT,24.0496111111111,90.8656111111111,4.0,58.574,
N2,bridge,A,Khamachor Bridge,24.0514722,90.874166,40.5,59.51,
N2,bridge,A,CURMARA CULVERT,24.0514722222222,90.8788055555555,7.3,59.982,
N2,bridge,A,DARIKANDI CULVERT,24.0518333333333,90.8861388888889,7.3,60.726,
N2,bridge,A,Noya Kandi Bridge,24.0529167,90.8988608,13.65,62.036,
N2,bridge,A,Patila Dua Bridge,24.0533056,90.9035556,13.1,62.515,
N2,bridge,A,NARAYERPUR CULVERT,24.0543333333333,90.9166111111111,4.0,63.836,
N2,bridge,A,Narayanpur Bridge,24.0545,90.9184716,,64.333,
N2,bridge,A,MUNDABAD BOX CULVERT,24.0560833333333,90.9396111111111,3.6,66.197,
N2,bridge,A,Mahmudabad Bridge,24.0565833,90.9459163,15.85,66.846,
N2,bridge,A,MANDABUS -3 BOX CULVERT,24.0568055555555,90.9489444444444,4.0,67.151,
N2,bridge,B,mundubus 5 boxculvert,24.0570277777777,90.9559444444444,7.3,67.87,
N2,bridge,C,OLD BRAMMAPULRA,24.0569722222222,90.9535,428.91,68.42,
N2,bridge,A,JAKANNATHPUR,24.0568333333333,90.9690277777777,4.0,69.212,
N2,bridge,B,RASHOMPUR,25.0568055555555,90.9695833333333,6.4,69.279,
N2,bridge,A,laxmipur brige,24.05675,90.9698055555555,25.5,69.285,
N2,bridge,A,LAXMEPUR CULVERT,24.0566944444444,90.9708888888889,4.0,69.416,
N2,bridge,C,KOMOLPUR CULVERT (1),24.0563055555555,90.9745555555555,6.0,69.766,
N2,bridge,A,KAMOLAPUR CULVERT,24.05625,90.9752222222222,6.0,69.855,
N2,bridge,A,NEAR BHAIRAB SLAB CULVERT,24.0508888888888,90.9900833333333,14.0,71.603,
N2,bridge,A,BHAIRAB BRIDGE,24.0489166666666,90.9916944444444,1194.5,71.834,
N2,bridge,A,BHAIROB SIDE CULVERT,24.0388611111111,91.0024722222222,3.0,73.429,
N2,bridge,A,BHAIRAB END SIDE CULVERT,24.0390277777777,91.0023611111111,3.0,73.439,
N2,bridge,B,SONARAMPUR,24.03775,91.0068333333333,3.1,73.94,
N2,bridge,A,SONARAMPUR,24.0373888888888,91.0070833333333,3.35,73.982,
N2,bridge,A,SONAROMPUR,24.0358888888888,91.0133055555555,6.1,74.642,
N2,bridge,C,SONARAMPUR CULVERT,24.0362777777777,91.0158888888889,3.1,74.915,
N2,bridge,C,SUNARAMPUR CULVERT,24.0367777777777,91.0185833333333,3.15,75.172,
N2,bridge,D,SUNARAMPUR BRIGE,24.0379166666666,90.0242777777777,79.75,75.778,
N2,bridge,A,SUNSRAMPUR CULVERT,24.0387777777777,91.0283333333333,3.15,76.203,
N2,bridge,A,SOHAGPUR 1,24.0401944444444,91.0356666666666,6.1,76.969,
N2,bridge,A,SOHAGPUR 2,24.0406666666666,91.0386111111111,12.5,77.239,
N2,bridge,A,KAMORA,24.0425277777777,91.04875,12.3,78.332,
N2,bridge,A,KHARIALA 2,24.04375,91.05825,3.1,79.33,
N2,bridge,A,KHARIALA -1 BOX CULVERT,24.0443888888888,91.0643055555555,12.57,79.928,
N2,bridge,A,DOLOPARA CULVERT,24.0447777777777,91.0675555555555,3.0,79.95,
N2,bridge,A,BATHTOLA-2 BOX CULVERT,24.0456111111111,91.0745,9.5,81.004,
N2,bridge,A,BETHTOLA BOX CULVERT,24.0461388888888,91.0784999999999,6.1,81.413,
N2,bridge,B,MALIHATA BOX CULVERT,24.0479444444444,91.0939166666666,4.5,82.991,
N2,bridge,A,MALIHATA BOX CULVERT,24.0485833333333,91.0983888888888,9.3,83.47,
N2,bridge,A,KUTTAPARCA CULVERT,24.0496388888888,91.1076388888888,3.6,84.419,
N2,intersection,,,24.0508333,91.1144444,,85.823,N1
N2,bridge,C,Kuttu para Bridge,24.0508333,91.1144444,22.96,86.364,
N2,bridge,A,GURAICHARI,24.0569722222222,91.1283611111111,3.0,87.365,
N2,bridge,C,Khalkata Bridge,24.0571667,91.1285271,22.95,88.342,
N2,bridge,A,ISLAMABAD BRIGE,24.055,91.1451666666666,23.0,89.1,
N2,bridge,C,Bari vara Bridge,24.0549722,91.1451941,43.88,89.64,
N2,bridge,B,BARIUSE BOX CULVERT,24.05325,91.1591666666666,4.1,90.552,
N2,bridge,C,Shabaj Pur Bridge,24.0541944,91.1508333,42.65,91.246,
N2,bridge,A,BARURA BOX CULVERT,24.0514444444444,91.1708611111111,12.0,91.756,
N2,bridge,A,SHAHA BAZAR BOX CULVERT,24.0514166666666,91.1709166666666,10.45,91.768,
N2,bridge,C,SHAHA BAZAR RCC GIDER BRIDGE,24.0462222222222,91.17725,203.75,92.673,
N2,bridge,A,Chatol Bridge,24.0444163,91.1772493,26.95,93.299,
N2,bridge,C,RAZABAZAR BOX CULVERT,24.0428611111111,91.19,4.0,94.284,
N2,bridge,A,BOE SHASY BOX CULVERT,24.0430833333333,91.1996388888889,10.4,95.285,
N2,bridge,A,DABISOR BOX CULVERT,24.0430277777777,91.2045277777777,10.4,95.774,
N2,bridge,C,Rampur Bridge,24.0429997,91.2045,64.61,96.192,
N2,bridge,B,Rampur Bridge-2,24.0429997,91.2045,35.01,96.853,
N2,bridge,C,Khilsima Bridge,24.0419719,91.2138333,27.03,97.263,
N2,bridge,A,KHALISHIMA BRIDGE,24.0444444444444,91.2215,26.0,97.668,
N2,bridge,A,CHANDURA BOX CULVERT,24.0444722222222,91.2217222222222,4.0,97.696,
N2,bridge,A,BUDUNTI P C GIRDER BRIDGE,24.0529444444444,91.2411388888888,65.3,100.04,
N2,bridge,A,BULUNTI 2 BOX CULVERT,24.0599444444444,91.2464166666666,4.0,101.004,
N2,bridge,A,BURUNDI (3) BOX CULVERT,24.0685,91.2560277777777,9.3,102.341,
N2,bridge,B,SHASHI BOX CULVERT,24.0717222222222,91.2593611111111,3.5,102.843,
N2,bridge,A,ISKMPUR BOX CULVERT,24.0750833333333,91.2631944444444,12.3,103.374,
N2,bridge,A,BILPASA CULVERT,24.0804722222222,91.26875,9.0,104.217,
N2,bridge,A,AMTOLI CULVERT,24.0822222222222,91.2796944444444,3.5,105.474,
N2,bridge,A,ARINAGAR CULVERT,24.0851111111111,91.2836666666666,4.0,105.983,
N2,bridge,A,KHATABARI CULVERT,24.0869444444444,91.2870555555555,10.3,106.396,
N2,bridge,C,Madhab pur Bridge,24.0850552,91.2836941,68.09,107.235,
N2,bridge,A,KODHMADAB PUR,24.0994444444444,91.29375,3.0,107.981,
N2,bridge,A,Madhabpur Bridge,24.0995274,91.2936386,19.5,109.038,
N2,bridge,C,MIRNAGAR R C C G BRIDGE,24.1121111111111,91.3047777777777,37.2,109.8,
N2,bridge,A,HARIA BOX CULVERT,24.12025,91.3131944444444,4.0,111.047,
N2,bridge,B,UNDHIURA P C G BRIDGE,24.1267222222222,91.3189166666666,30.0,111.979,
N2,bridge,A,Dokhin Bedhosa Bridge,24.1268049,91.3189438,25.0,113.087,
N2,bridge,A,Begura -2 Bridge,24.1356941,91.3234993,40.75,113.846,
N2,bridge,A,Begurga -1 Bridge,24.1416663,91.326916,23.0,114.909,
N2,bridge,B,WORLDKOAL CULVERT,24.1471666666666,91.3450555555555,2.0,115.81,
N2,bridge,A,JAGADISHPUR,24.1481111111111,91.3465833333333,2.0,116.018,
N2,bridge,A,JAGADISHPUR,24.1493888888888,91.3466666666666,10.6,116.219,
N2,intersection,,,24.1478608,91.3464441,,116.294,N204
N2,bridge,C,JAGADISPUR 3 BOX CULVERT,24.1522777777777,91.3486388888888,2.0,116.61,
N2,bridge,A,JAGADISHPUR 2 BOX CULVERT,24.1573611111111,91.3489166666666,4.25,117.086,
N2,bridge,A,JOGIDISH PUR CULVERT,24.1592222222222,91.3489999999999,10.6,117.284,
N2,bridge,A,BELGOR CULVERT,24.1615277777777,91.3490277777777,2.0,117.54,
N2,bridge,A,BELGOR BOX CULVERT,24.1635277777777,91.3491944444444,9.0,117.771,
N2,bridge,A,NARONPUR CULVERT,24.1656666666666,91.3491388888888,7.2,117.99,
N2,bridge,A,NARAONPUR CULVERT,24.1687222222222,91.3490277777777,8.2,118.335,
N2,bridge,B,NANAR KHOLA CULVERT,24.1700277777777,91.3490555555555,6.4,118.497,
N2,bridge,A,ITAKHOLA BOX CULVERT,24.1728611111111,91.3490833333333,3.1,118.798,
N2,bridge,A,ITAKHOLA CULVERT,24.1749166666666,91.3490833333333,4.2,119.035,
N2,bridge,A,BANGADOBA,24.1791944444444,91.3497777777777,1.6,119.505,
N2,bridge,A,BANGADOBA BOX CULVERT,24.1851388888888,91.3506666666666,17.12,120.199,
N2,bridge,A,KAROLA,24.1911944444444,91.3504444444444,5.32,120.851,
N2,bridge,A,PATONPUR,24.1941666666666,91.3505555555555,6.22,121.195,
N2,bridge,A,RATONPUR BOX CULVERT,24.1985555555555,91.3510833333333,3.5,121.686,
N2,bridge,A,NOWA PARA BOX CULVERT,24.2023055555555,91.3516111111111,7.8,122.114,
N2,bridge,A,NOWA PARA,24.2041944444444,91.3519999999999,2.0,122.326,
N2,bridge,A,NOWAPARA BOX CULVERT,24.2079444444444,91.3539722222222,4.3,122.788,
N2,bridge,A,NOWA PARA BOX CULVERT,24.2089444444444,91.3539166666666,2.15,122.934,
N2,bridge,A,SHAPUR,24.2107222222222,91.3560555555555,29.5,123.191,
N2,bridge,A,SAHAPUR BOX CULVERT,24.2146666666666,91.3590833333333,3.3,123.654,
N2,bridge,A,HORITOLA BOX CULVERT,24.2185833333333,91.3627777777777,6.3,124.304,
N2,bridge,A,HARITALA 2 BOX CULVERT,24.2197777777777,91.3636944444444,4.3,124.46,
N2,bridge,A,HORI TOLA BOX CULVERT,24.2211944444444,91.3644166666666,6.6,124.638,
N2,bridge,A,HORITALA BOX CULVERT,24.2231388888888,91.3648055555555,5.3,124.856,
N2,bridge,A,SHIBPUR BOX CULVERT,24.2256388888888,91.3655833333333,8.1,125.141,
N2,bridge,A,SHIBPUR BOX CULVERT,24.2295555555555,91.3665277777777,2.0,125.593,
N2,bridge,A,SHIBPUR BOX CULVERT,24.2298333333333,91.3666944444444,6.6,125.657,
N2,bridge,A,SHIBPUR BOX CULVERT,24.23125,91.3670833333333,4.3,125.78,
N2,bridge,A,SHIBPUR BOX CULVERT,24.235,91.3680555555555,2.0,126.21,
N2,bridge,A,SOUDURP 2,24.2359722222222,91.3681944444444,1.5,126.317,
N2,bridge,A,RIAZNAZAR BOX CULVERT,24.2398888888888,91.369,1.5,126.772,
N2,bridge,A,RIAZ NAGAR BOX CULVERT,24.2425,91.3697222222222,1.5,127.076,
N2,bridge,A,TAJPUR BOX CULVERT,24.2476666666666,91.3713888888888,6.6,127.691,
N2,bridge,A,JAJPUR BOX CULVERT,24.2505,91.3726944444444,1.5,128.04,
N2,bridge,A,TAJPUR BOX CULVERT,24.2532222222222,91.3742499999999,3.3,128.37,
N2,bridge,A,BAKHARNAGAR BOX CULVERT,24.2559722222222,91.3764444444444,3.3,128.753,
N2,bridge,A,CHARA BOX CULVERT,24.2586111111111,91.3781666666666,1.5,129.103,
N2,bridge,A,CHARA BOX CULVERT,24.2610277777777,91.3795555555555,4.3,129.405,
N2,bridge,A,CHARA BOX CULVERT,24.2620555555555,91.3800555555555,3.0,129.546,
N2,bridge,B,GORIPUR BOX CULVERT,24.2656388888888,91.3821666666666,4.2,129.985,
N2,bridge,B,GORIPUR BOX CULVERT,24.2675,91.3830833333333,2.6,130.23,
N2,bridge,A,OLIPUR BOX CULVERT,24.2710833333333,91.3847777777777,2.0,130.641,
N2,bridge,A,LEVEL CROSING BOX CULVERT,24.271,91.3923611111111,4.3,131.468,
N2,bridge,A,OLIPUR BOX CULVERT,24.2714444444444,91.3933611111111,1.7,131.547,
N2,bridge,A,SHARALDI BOX CULVERT,24.2723055555555,91.3948611111111,2.0,131.767,
N2,bridge,A,Shutan Bazar Bridge,24.2721938,91.3949441,83.3,132.792,
N2,bridge,A,SATANKONADI BRIDGE,24.2784166666666,91.4078611111111,2.6,133.252,
N2,bridge,A,SATANKANADI,24.2792499999999,91.4091666666666,2.6,133.439,
N2,bridge,A,NURPUR,24.2804166666666,91.41125,2.5,133.659,
N2,bridge,A,NURPUR CULVERT,24.2820277777777,91.4182777777777,2.6,134.422,
N2,bridge,A,N ASHUTPUR,24.2819166666666,91.4236666666666,4.2,134.957,
N2,bridge,A,BORCLAR CULVERT,24.2800555555555,91.4361388888888,12.5,136.247,
N2,bridge,A,BORCHAR,24.2759166666666,91.4445277777777,2.6,137.262,
N2,bridge,A,TALUGARAR,24.2723611111111,91.4479166666666,2.6,137.784,
N2,bridge,A,BISHOROAH BOX CULVERT,24.2690555555555,91.4510833333333,2.6,138.267,
N2,bridge,A,BISHOROAD CULVERT,24.2663888888888,91.4547222222222,2.1,138.769,
N2,bridge,A,WORLD ROAD CULVERT,24.2665555555555,91.4596666666666,2.1,139.271,
N2,bridge,A,BIRMACHAR CULVERT,24.2668611111111,91.4646666666666,2.1,139.773,
N2,bridge,A,BIRAM CHAR BOX CULVERT,24.2671111111111,91.4708055555555,1.6,140.402,
N2,bridge,A,SHAIS TAGONG CULVEERT,24.2671944444444,91.4745833333333,1.6,140.804,
N2,intersection,,,24.2676938,91.4768882,,141.309,N204
N2,bridge,C,Shaistaganj Bridge,24.2676938,91.4768882,217.25,141.382,
N2,bridge,A,Addipasha Bridge,24.2788063459787,91.4859254584218,27.0,142.912,
N2,bridge,C,BASHUINA BOX CULVERT,24.2861388888888,91.4980833333333,12.6,144.146,
N2,bridge,C,BASHINA BOX CULVERT,24.2873055555555,91.5003611111111,2.0,144.413,
N2,bridge,A,BAINA BOX CULVERT,24.2906666666666,91.5056666666666,2.0,145.077,
N2,intersection,,,24.2947219,91.5100833,,145.961,N207
N2,bridge,A,JOYPUR BOX CULVERT,24.2979166666666,91.5112222222222,1.5,146.094,
N2,bridge,A,MIRPUR BOX CULVERT,24.3004166666666,91.512,17.2,146.376,
N2,bridge,A,MIRPUR BOX CULVERT,24.30275,91.5133055555555,1.9,146.673,
N2,bridge,A,RUPSANKAR BOX CULVERT,24.3055,91.5169444444444,2.0,147.167,
N2,bridge,A,KHAMAR GOAN BOX CULVERT,24.3076111111111,91.5183055555555,1.5,147.428,
N2,bridge,A,CHARGUY BOX CULVEFRT,24.313,91.5225,6.3,148.175,
N2,bridge,A,DOWLOTPUR BOX CULVERT,24.3178055555555,91.5276666666666,8.0,148.983,
N2,bridge,A,DOWLOTPUR PC BRIDGE,24.3225277777777,91.5301944444444,41.0,149.509,
N2,bridge,A,TOLAMPUR BOX CULVERT,24.3269999999999,91.5323611111111,8.0,150.057,
N2,bridge,A,ISLAMPUR,24.1669444444444,91.5335555555555,6.4,150.812,
N2,bridge,A,JANJJALIA,24.3368611111111,91.53375,1.3,151.154,
N2,bridge,A,JANJJALIA,24.33775,91.5334722222222,1.3,151.287,
N2,bridge,A,JANNJALIA,24.3403611111111,91.5343611111111,4.2,151.559,
N2,bridge,A,KABIR PUR,24.3429166666666,91.5348611111111,10.6,151.86,
N2,bridge,A,ISLAMABAD,24.3458611111111,91.5351388888888,3.0,152.198,
N2,bridge,A,KABIR PUR CULVERT,24.3486111111111,91.5358055555555,2.5,152.501,
N2,bridge,B,CHALTA BAZAR BRIDGE,24.3535833333333,91.5380833333333,59.2,153.116,
N2,bridge,A,CHALTA BOX CULVERT,24.3551388888888,91.53975,3.0,153.38,
N2,bridge,A,CHALTA BAZAR BOX CULVERT,24.3630555555555,91.5422777777777,3.0,154.294,
N2,bridge,A,Mokkadi Bridge,24.3658315268722,91.5434295729075,15.85,154.93,
N2,bridge,A,ADITPUR,24.3732222222222,91.5471666666666,19.0,155.528,
N2,bridge,A,MOSHIDOLONG,24.3780277777777,91.5495,3.0,156.065,
N2,bridge,B,Moglie Bridge,24.3819716,91.5513889,13.7,156.615,
N2,bridge,A,DOVEREL,24.3901111111111,91.5571111111111,2.6,157.701,
N2,bridge,A,SHOURATUL,24.2096944444444,91.5587777777777,7.9,158.025,
N2,bridge,A,HASANABAD BOX CULVERT,24.3958333333333,91.5608888888888,5.2,158.437,
N2,bridge,A,HASANABAD,24.3975,91.5620833333333,5.4,158.639,
N2,bridge,A,MONDUL KAFON,24.3998611111111,91.5636388888888,3.0,158.959,
N2,bridge,A,PUTI JURRI,24.4034722222222,91.5645,2.0,159.377,
N2,bridge,A,Putajuri Bridge,24.4034167,91.5644444,19.5,159.669,
N2,bridge,C,PUTA JURI BOX CULVERT,24.4076944444444,91.565,1.5,159.851,
N2,bridge,A,PUTA JURI SCHOOL,24.4100277777777,91.5650833333333,2.6,160.123,
N2,bridge,A,KAZI MADAM,24.4168611111111,91.5661666666666,5.0,160.867,
N2,bridge,A,RASURAT BOX CULVERT 2,24.41775,91.5665555555555,6.2,160.982,
N2,bridge,A,RAJSURAT BOX CULVERT,24.4194722222222,91.5670555555555,10.6,161.178,
N2,bridge,A,SHUKCHAR,24.42075,91.5673333333333,4.0,161.333,
N2,bridge,A,SHUKCHAR,24.4221111111111,91.5676388888888,2.0,161.492,
N2,bridge,A,SHUKCHAR,24.4242638888888,91.5680555555555,3.8,161.748,
N2,bridge,B,SHUK GHAR RCC GRIDER,24.4261666666666,91.5682777777777,37.1,161.948,
N2,bridge,A,SUCK CHAR BOX CULVERT,24.4275277777777,91.5683611111111,1.5,162.123,
N2,bridge,A,COLTANPUR BOX CULVERT,24.4290277777777,91.5679166666666,1.5,162.266,
N2,bridge,A,COLYANPUR BOX CULVERT,24.4308888888888,91.5683333333333,1.5,162.479,
N2,bridge,A,SHAMREPUR BOX CULVERT,24.4339444444444,91.5686666666666,5.3,162.825,
N2,bridge,A,BROCHAR BOX CULVERT,24.4388333333333,91.5691944444444,6.2,163.37,
N2,bridge,A,BARO CLAR BRIDGE,24.4396388888888,91.56925,14.8,163.415,
N2,bridge,A,BARO CHAR BOX CULVERT,24.44225,91.5698055555555,3.0,163.759,
N2,bridge,B,Rokonpur Bridge,24.4449997,91.5705549,19.5,164.088,
N2,bridge,A,ROKAMPUR BOX CULVERT,24.4461944444444,91.5709722222222,2.0,164.225,
N2,bridge,A,RAKONPUR BOX CULVERT,24.4477222222222,91.5713611111111,4.3,164.39,
N2,bridge,B,BURIMA BOX CULVERT,24.4526111111111,91.5721388888888,4.5,164.956,
N2,bridge,A,BURIMA BOX CULVERT,24.4531666666666,91.5721944444444,4.5,165.008,
N2,bridge,C,BARIMA BOX CULVERT,24.4551388888888,91.5724444444444,4.5,165.246,
N2,bridge,A,VORGOU BOX CULVERT,24.4568333333333,91.5725833333333,2.06,165.414,
N2,bridge,A,VORGOU BOX CULVERT,24.4591666666666,91.5726388888888,6.12,165.679,
N2,bridge,A,VORGOU BOX CULVERT,24.4606666666666,91.5728611111111,3.5,165.837,
N2,bridge,A,BOROKADI BOX CULVERT,24.4636666666666,91.5734166666666,7.4,166.183,
N2,bridge,A,BOROKANSI BOX CULVERT,24.4644166666666,91.5735,3.5,166.28,
N2,bridge,A,PANIDUNDA PCGIRD BRIDGE,24.4693055555555,91.5736944444444,51.8,166.829,
N2,bridge,B,Paniunda Bridge,24.4732216,91.5743049,21.5,167.266,
N2,bridge,A,KORAGU BOX CULVERT,24.4755277777777,91.5753888888888,6.2,167.503,
N2,bridge,A,KURAGU BOX CULVERT,24.4798888888888,91.5761944444444,5.1,168.035,
N2,bridge,A,KURGGUB BOX CULVERT,24.4821388888888,91.5770833333333,2.0,168.311,
N2,bridge,A,SATAIHUL,24.4845,91.57775,1.5,168.546,
N2,bridge,A,SATAIHULL,24.4854166666666,91.5779444444444,2.6,168.664,
N2,bridge,A,SATAISUL,24.4864444444444,91.5782777777777,2.0,168.787,
N2,bridge,A,SATAIHUL BOX CULVERT,24.4870277777777,91.5786944444444,1.6,168.935,
N2,bridge,A,SATAIHUL,24.4878611111111,91.5787222222222,1.0,169.015,
N2,bridge,A,SATHAIL CULVERT,24.4892777777777,91.57925,1.5,169.132,
N2,bridge,B,Sathail Bridge,24.4913886,91.5799716,24.0,169.381,
N2,bridge,A,SATHIHAL B CULVERT,24.4928611111111,91.5804166666666,6.5,169.566,
N2,bridge,A,SATHAI HAT CULVERT,24.4934444444444,91.5805555555555,2.0,169.623,
N2,bridge,A,SATHAIHAL - 4 CULVERT,24.4940277777777,91.5806944444444,2.0,169.686,
N2,bridge,A,SATAIHUL,24.4945277777777,91.5809166666666,2.0,169.762,
N2,bridge,A,SATAIHUL BOX CULVERT,24.4951944444444,91.5809444444444,2.0,169.81,
N2,bridge,A,SATAIHAL BOX CULVERT,24.4963055555555,91.5809444444444,2.6,169.935,
N2,bridge,A,MARAURA,24.4972222222222,91.5814999999999,2.5,170.031,
N2,bridge,A,MURAURA BOX CULVERT,24.498,91.5826388888888,6.3,170.187,
N2,bridge,A,MURAURA CULVERT,24.4983333333333,91.5829166666666,2.6,170.231,
N2,bridge,A,MARAURA CULVERT,24.4986111111111,91.5830277777777,2.6,170.282,
N2,bridge,A,MURAURA CULVERT,24.49975,91.5834166666666,2.6,170.397,
N2,bridge,A,DEWPARA CUVERT,24.5021944444444,91.5840555555555,2.0,170.68,
N2,bridge,A,DEWPARA CULVERT,24.5055277777777,91.5848611111111,7.6,171.066,
N2,bridge,A,DEWPARA,24.5063055555555,91.5851666666666,2.0,171.144,
N2,bridge,A,DEWPARA BOX CULVERT,24.5063888888888,91.5851666666666,2.0,171.278,
N2,bridge,A,GARIPUR,24.5086944444444,91.5852222222222,6.3,171.414,
N2,bridge,B,MALAR BATAR,24.5117777777777,91.5854166666666,7.5,171.763,
N2,bridge,A,KANDIGOAN,24.5159444444444,91.5868888888888,9.6,172.26,
N2,bridge,A,KANDIGOAN,24.5194722222222,91.5891666666666,3.0,172.73,
N2,bridge,C,KANDIGOAN BRIDGE,24.5212222222222,91.5897222222222,14.0,172.941,
N2,bridge,A,AUGON BOX CULVERT,24.5235,91.5904166666666,4.0,173.193,
N2,bridge,A,ANGOAN BOX CULVERT,24.5252777777777,91.5919722222222,1.0,173.395,
N2,bridge,A,ANGOOM BOX CUL,24.5270277777777,91.5936388888888,1.0,173.704,
N2,bridge,A,DEVPARA BOXCULVERT,24.5279166666666,91.5955,2.5,174.007,
N2,bridge,A,DEVPARA BAZAR BOX CULVERT,24.5314166666666,91.5967222222222,4.3,174.253,
N2,bridge,A,NORTH VEVPUR,24.5333333333333,91.59825,1.8,174.574,
N2,bridge,A,NORT DEVPARA 3 CULVERT,24.5347222222222,91.5993055555555,3.2,174.753,
N2,bridge,A,NORTH DEVPARA 2 CULVER,24.5356111111111,91.6001388888888,1.5,174.889,
N2,bridge,A,NORTH DEVPARA,24.5363333333333,91.6007777777777,5.2,174.989,
N2,bridge,A,NOLSUZA 2 CULVERT,24.5372777777777,91.6015833333333,2.0,175.128,
N2,bridge,A,NALSUZA,24.5386666666666,91.6031111111111,1.5,175.347,
N2,bridge,A,SODORPUR NOTUNBAZAR,24.54,91.6038333333333,1.5,175.511,
N2,bridge,A,DHAKA SHAISTAGANG HALIGAN,24.5416666666666,91.6045833333333,1.5,175.724,
N2,bridge,A,SHADUGHAT,24.543,91.6046944444444,6.4,175.858,
N2,bridge,A,SHADARGHAT 1,24.5443611111111,91.6051111111111,7.0,176.024,
N2,bridge,C,KUROR PUR BRIDGE,24.5480277777777,91.6055555555555,44.3,176.411,
N2,bridge,A,BISRAPAR BRIDGE,24.5514444444444,91.6056388888888,140.0,176.818,
N2,bridge,A,VHARDEV CULVERT,24.5566944444444,91.6040555555555,1.5,177.43,
N2,bridge,A,DHAKA KHATENPASS BRIDGE,24.5587777777777,91.6034722222222,1.5,177.689,
N2,bridge,A,BANAODAB GUPLAR BRIDGE,24.5628611111111,91.60275,2.0,178.144,
N2,bridge,A,DHAKA KATPASS BRIDGE,24.5662222222222,91.6029166666666,22.0,178.526,
N2,bridge,A,RATUM PUR (3),24.5708055555555,91.6029444444444,14.0,179.044,
N2,bridge,A,RATUM PUR (2),24.5756666666666,91.6009166666666,2.0,179.631,
N2,bridge,A,RUSTOM PUR RCC GIRDER BRIDGE,24.5805555555555,91.5983388888888,35.5,180.265,
N2,bridge,A,batapur,24.5826388888888,91.5990555555555,3.0,180.527,
N2,bridge,A,Batapur Bridge,24.5848052,91.5996663,35.0,180.762,
N2,bridge,A,anukandi,24.5874444444444,91.6006388888888,2.0,181.082,
N2,bridge,A,ANUKANDI,24.5896388888888,91.6014166666666,6.03,181.333,
N2,bridge,A,AUSKANDI,24.5928611111111,91.6024444444444,2.0,181.705,
N2,bridge,A,AUSKANDI BOX CULVERT,24.59525,91.6048888888888,1.5,182.073,
N2,bridge,A,USUAL NAGER,24.5957777777777,91.6086388888888,1.5,182.48,
N2,bridge,A,USUF NAGAR,24.5961111111111,91.6115277777777,6.2,182.768,
N2,bridge,A,Minazpur Bridge,24.6011944,91.6156111,73.0,183.481,
N2,bridge,A,MIRAZPUR,24.6039166666666,91.6176666666666,3.0,183.883,
N2,bridge,A,MIRAZPUR 1,24.6048333333333,91.6185833333333,3.0,184.004,
N2,bridge,B,LALALPUR BOX CULVERT,24.6070277777777,91.6216388888888,7.2,184.404,
N2,bridge,A,JALALPUR,24.6113055555555,91.6278055555555,2.0,185.04,
N2,bridge,A,SYADPUR,24.6111666666666,91.6277499999999,7.2,185.178,
N2,bridge,A,SOYECDPUR,24.6123055555555,91.6294444444444,4.0,185.396,
N2,bridge,A,Umarpur Bridge,24.6133333333333,91.6348888888889,60.4,185.981,
N2,bridge,A,Chaar Nopul Bridge,24.6128889,91.644333,15.0,186.959,
N2,bridge,A,PATUA ADARSHAW BOX CULVERT,24.6142777777777,91.6513333333333,9.3,187.715,
N2,bridge,A,Aminnagar Bridge,24.6169438,91.66,30.0,188.64,
N2,bridge,A,Gram Sherpur Bridge,24.6238604,91.6702771,16.75,189.984,
N2,bridge,A,SHERPWR BOX CULVERT,24.6251388888888,91.6739166666666,4.0,190.384,
N2,intersection,,,24.6264993,91.6774993,,190.892,N207
N2,bridge,C,SHER PUR,24.6294166666666,91.6791944444444,282.35,191.19,
N2,bridge,C,SHALIPUR BRIDGE,24.6423333333333,91.6908888888888,160.7,193.092,
N2,bridge,A,Katen Bridge,24.6432219,91.6919997,25.5,194.173,
N2,bridge,A,BAGUMPUR,24.6572222222222,91.7080583333333,2.0,195.516,
N2,bridge,A,FIRUSPUR PC GIDER BRIDGE,24.6635277777777,91.7115,63.2,196.333,
N2,bridge,A,Onish Mill Bridge,24.6712216,91.7153611,22.0,197.284,
N2,bridge,A,FASTAM BOX CUL,24.6776388888888,91.7211388888888,3.0,198.215,
N2,bridge,A,Narkila Bridge,24.6803049,91.7231104,24.7,198.558,
N2,bridge,A,SASHARGAT BRIDGE,24.6828888888888,91.7238611111111,3.0,198.883,
N2,bridge,A,BROMMON GRAM,24.6864722222222,91.7243611111111,24.5,199.288,
N2,bridge,A,BRAMMOR GRANON,24.689,91.7247222222222,3.0,199.555,
N2,bridge,A,BRAMMOR GRAME BOX CULVERT,24.6941388888888,91.7259444444444,2.5,200.162,
N2,bridge,A,BRAMMONGRAM BOX CULVERT,24.69725,91.7271111111111,2.0,200.531,
N2,bridge,A,GOYALA BAZAR,24.7036388888888,91.7300833333333,3.0,201.261,
N2,bridge,A,GOYNAGAT BOXCULVERT,24.70975,91.7381944444444,8.2,202.412,
N2,bridge,A,TAJPUR BAZAR BOX,24.7227777777777,91.7531111111111,3.0,204.534,
N2,bridge,A,CHANDPUR BOX CULVERT,24.7284444444444,91.7615277777777,7.2,205.618,
N2,bridge,A,SIMMANPUR BOX CULVERT,24.7321944444444,91.7669722222222,2.0,206.324,
N2,bridge,A,KASIKAPON BOX CULVERT,24.7351111111111,91.7702222222222,6.25,206.778,
N2,bridge,A,MOHAMMAD PUR CULVERT,24.7436944444444,91.777,2.0,208.023,
N2,bridge,A,DAYA MIR BOX CULVERT,24.7523611111111,91.7815277777777,1.5,209.092,
N2,bridge,A,DAYAMIR BOX CULVERT,24.7605,91.7834444444444,2.0,210.06,
N2,bridge,A,SONARGOUR BOX CULVERT,24.7661111111111,91.7833611111111,1.5,210.696,
N2,bridge,A,SOWEAGOAN BOX CULVERT,24.7686111111111,91.7828611111111,7.1,210.966,
N2,bridge,A,FURRA BAZAR CULVERT,24.7784166666666,91.7838055555555,2.0,212.057,
N2,bridge,A,KURRA BAZR BOX CULVERT,24.7845833333333,91.785,2.0,212.779,
N2,bridge,A,KURRZ BAZAR BOX CULVERT,24.7891666666666,91.7876944444444,2.0,213.343,
N2,bridge,A,AHAMAD NAGAR CULVERT,24.7914722222222,91.7891666666666,2.0,213.668,
N2,bridge,C,NAZIR BAZAR,24.7960555555555,91.7895833333333,12.4,214.179,
N2,bridge,A,KUTUB PUR BOX CULVERT,24.8053888888888,91.7906944444444,2.5,215.225,
N2,bridge,A,ROSID PUR,24.8076111111111,91.7913888888888,2.5,215.486,
N2,bridge,A,ROSID PUR BOX CULVERT,24.8122222222222,91.7925,18.6,216.032,
N2,bridge,A,LALA BAZAR START,24.8266944444444,91.8128888888888,2.5,218.661,
N2,bridge,B,Lala Bazar Bridge,24.8363052,91.8203327,12.0,219.998,
N2,bridge,A,LALA BAZAR,24.8403333333333,91.8218055555555,2.0,220.476,
N2,bridge,B,LALA BAZAR,24.8483333333333,91.8255833333333,3.0,221.457,
N2,bridge,B,LALA BAZAR,24.8515277777777,91.8296111111111,12.2,222.009,
N2,bridge,A,KETLIL CULVERT,24.8585833333333,91.8385833333333,3.0,223.207,
N2,bridge,A,KETLI 2 CULVERT,24.8591944444444,91.8413333333333,3.0,223.512,
N2,bridge,A,Teli Bazar Bridge,24.8635278,91.8519444,40.8,224.112,
N2,bridge,A,BALIADIKONE CULVERT,24.8634444444444,91.8519444444444,2.0,224.705,
N2,bridge,A,CHANDRIPUR,24.8681388888888,91.86025,1.5,225.715,
N2,bridge,A,Daudpur,24.8685,91.8618888888888,1.5,225.86,
N2,bridge,B,FIRUS PUR 1,24.8687777777777,91.8634999999999,7.0,226.077,
N2,bridge,B,FIRUSPUR (2),24.8740833333333,91.8677777777777,2.0,226.827,
N2,bridge,A,SYHAT RAIL LINE OVER BRIDGE,24.8772777777777,91.8737499999999,21.0,227.581,
N2,intersection,,,24.8776938,91.8752771,,227.757,N208
N2,bridge,A,KADAMTALY CULVERT,24.8786388888888,91.8772499999999,9.5,228.006,
N2,bridge,B,Shahjalal Bridge,24.8827493,91.8796938,298.5,228.214,
N2,bridge,A,SUCLTY BOX CULVERT,24.8875555555555,91.8804166666666,9.1,229.097,
N2,bridge,A,SUB CITY BOX CULVERT,24.8884444444444,91.8800833333333,9.1,229.208,
N2,bridge,A,NAYER POLL BOX CULVERT,24.8928333333333,91.8783611111111,2.5,229.791,
N2,bridge,A,MIRA BAZAR CULVERT,24.8951111111111,91.8801388888888,4.4,230.158,
N2,bridge,A,MIRA BAZAR BOX CULVERT,24.8953333333333,91.8822777777777,3.0,230.37,
N2,bridge,A,MIRA BAZAR BOX CULVERT,24.8952777777777,91.8848333333333,2.0,230.621,
N2,bridge,A,FORHADKHA POLL BOX CULVERT,24.8951944444444,91.8878055555555,8.5,230.925,
N2,bridge,A,TILA GOR BOX CULVERT,24.8953055555555,91.8979444444444,2.0,232.0,
N2,bridge,B,TILA GOR BOX CULVERT,24.8964722222222,91.9040277777777,6.1,232.717,
N2,bridge,A,ISLAM PUR BOX CULVERT,24.9006111111111,91.91425,2.0,233.869,
N2,bridge,A,CHAMILI BAG BOX CULVERT,24.90325,91.9195,6.0,234.469,
N2,bridge,C,Hatim Para Bridge,24.9068333,91.9244993,11.85,235.123,
N2,bridge,A,KHASIM RLAQAR,24.90975,91.9301388888888,6.0,235.778,
N2,bridge,A,Khadim Nagar Bridge,24.9132778,91.9366108,11.8,236.582,
N2,bridge,B,Khadem Nagar Bridge,24.9152222,91.947833,15.0,237.465,
N2,bridge,A,KASIM NAGAR,24.9156944444444,91.9472777777777,3.0,237.701,
N2,bridge,A,KHIDIR PUR BOX CULVERT,24.9161944444444,91.94925,3.0,237.913,
N2,bridge,A,HATIMA BOX CULVERT,24.9196944444444,91.9585555555555,14.4,238.927,
N2,bridge,A,PORGONA BAZAR BOX CULVERT,24.9211111111111,91.9610277777777,6.0,239.237,
N2,bridge,B,PILOR CHAK BOX CULVERT,24.9296388888888,91.9708333333333,12.45,240.586,
N2,bridge,A,HAGIVILA BOX CULVERT,24.9308888888888,91.9725,3.0,240.801,
N2,bridge,A,BOTESSOR BOX CULVERT,24.9343888888888,91.9790277777777,3.0,241.568,
N2,bridge,A,PULI BOX CULVERT,24.9368333333333,91.9839166666666,6.0,242.155,
N2,bridge,A,BOTESSOR BOX CULVERT,24.9389166666666,91.9903333333333,9.25,242.857,
N2,bridge,A,THAKURRAMATI BOX CULVERT,24.9488333333333,92.0033888888888,3.0,244.613,
N2,bridge,A,THAKURAMATI BOX CULVERT,24.9516666666666,92.0072222222222,9.25,245.126,
N2,bridge,A,SHIK NAGAR,24.9565,92.0109722222222,3.9,245.766,
N2,bridge,A,KHAN BAGAN,25.9633888888888,92.0190833333333,6.5,246.91,
N2,bridge,A,PANI CHARA,24.9644166666666,92.0240277777777,9.0,247.466,
N2,bridge,A,OMON PUR,24.9727777777777,92.0329166666666,6.85,248.788,
N2,bridge,A,OMON PUR,24.9753333333333,92.0348055555555,3.0,249.122,
N2,bridge,A,HORIPUR,24.9836666666666,92.0378055555555,4.5,250.104,
N2,bridge,A,HORIPUR,24.98975,92.0424166666666,91.2,250.992,
N2,bridge,B,KORISH TRUSS WITH RCC SLAB,25.0015555555555,92.0480555555555,83.1,252.528,
N2,bridge,B,SALI RCC GIDER BRIDGE,25.0140833333333,92.0613333333333,36.3,254.476,
N2,bridge,B,GOYALI RCC GIDER BRIDGE,25.0291944444444,92.0718888888888,37.0,256.463,
N2,bridge,A,DAMRI RCC GIDER BRIDGE,25.0372777777777,92.0834722222222,55.8,257.959,
N2,bridge,A,DIGIR PAR,25.0478611111111,92.0959999999999,12.4,259.695,
N2,bridge,A,DAMA BOX CULVERT,25.0530555555555,92.1013611111111,6.1,260.511,
N2,bridge,A,SRIKAL BOX CULVERT,25.0550555555555,92.1038888888888,9.1,260.835,
N2,bridge,A,borbos bazer,25.0587777777777,92.1061111111111,9.1,261.303,
N2,bridge,A,borbos bazer,25.0675833333333,92.1107777777777,22.0,262.383,
N2,bridge,A,DORPOS SUBMARCH,25.0766666666666,92.1135833333333,3.0,263.432,
N2,bridge,A,Sari Ghat Bridge,25.0829438,92.1154722,21.45,264.149,
N2,bridge,B,Sari Ghat Bridge,25.092083,92.1178604,190.5,265.207,
N2,bridge,A,Eraboty Bridge,25.1030278,92.1184438,26.0,266.429,
N2,bridge,A,SUBMARGE CULVERT,25.1078888888888,92.1186666666666,3.0,267.009,
N2,bridge,A,Boro Gung Bridge,25.1252493,92.1163611,87.5,268.95,
N2,bridge,A,LAMAPARA BRIGE,25.1295,92.1195833333333,26.0,269.648,
N2,bridge,A,Chuna Hati Bridge,25.131666,92.1203049,22.0,269.889,
N2,bridge,A,CHING GIL STEEL BEAM AND RCC SLAB,25.1384166666666,92.1202777777777,79.0,270.772,
N2,bridge,A,Mukterpur Bridge,25.1408608,92.1197771,14.5,271.066,
N2,bridge,B,BILAY MORE STEEL BEAM AND RCC SLAB,25.1502777777777,92.1125,63.5,272.5,
N2,bridge,A,RANG PANI STEEL BEAM AND RCC SLAB,25.1523333333333,92.1084444444444,47.5,272.983,
N2,bridge,A,RANG PASI,25.15375,92.1076388888888,17.0,273.192,
N2,bridge,B,RANG PASI,25.1544722222222,92.1053055555555,37.6,273.394,
N2,bridge,A,Bangla Bazar Bridge,25.1589167,92.1001389,81.0,274.13,
N2,bridge,A,ASUM BAZAR,23.1645555555555,92.0960277777777,36.7,274.882,
N2,bridge,A,Noljuri Bridge,25.1772493,92.0558889,39.5,279.76,
N2,bridge,A,NOLJURI,25.1764166666666,92.0541944444444,24.5,279.957,
N2,bridge,A,.,25.1783333333333,92.0261111111111,3.5,281.84,
N2,bridge,A,.,25.175,92.0252777777777,3.5,282.27,
N2,bridge,A,.,25.1744444444444,92.0244444444444,2.0,282.36,
N2,bridge,A,.,25.1719444444444,92.02,6.5,282.88,
N2,bridge,A,.,25.1711111111111,92.0186111111111,7.0,283.11,
N2,bridge,A,.,25.1680555555555,92.0180555555555,3.5,283.69,
N2,bridge,A,.,25.165,92.0183333333333,5.0,284.01,
N2,bridge,A,.,25.1613888888888,92.0172222222222,40.0,284.46,
N2,bridge,A,.,24.9005555555555,91.9141666666666,5.0,284.64,
N2,sourcesink,,Road End at Jaflong.,25.1570556,92.0176382,,286.516,
N204,sourcesink,,Road start from N2 at Jagannathganj.,24.1479163,91.3466108,,0.0,
N204,bridge,C,JOGIDISH PUR TEMORIA,24.1483055555555,91.3513888888888,4.0,0.546,
N204,bridge,B,TELARIA CHARA,24.1459166666666,91.3512777777777,40.0,0.806,
N204,bridge,C,UTTOR SUMA BRIDGE,24.1439722222222,91.3511944444444,3.85,1.027,
N204,bridge,C,NOYAHADI CULVERT,24.1397777777777,91.3513333333333,12.6,1.49,
N204,bridge,B,DOKHIR SHURMA CULVERT,24.137,91.3515555555555,9.5,1.81,
N204,bridge,B,SURMA CULVERT,24.1322777777777,91.3519444444444,3.0,2.305,
N204,bridge,A,TELIAPERA SUBMARGE,24.1310555555555,91.3572222222222,1.5,2.895,
N204,bridge,B,20 NOVEMBER AMTOLI,24.1240833333333,91.4126111111111,9.5,8.785,
N204,bridge,C,CHADCHURY CULVERT,24.1287222222222,91.4303055555555,4.6,10.785,
N204,bridge,B,SHOT CHORY FOREST CULVERT,24.1284166666666,91.4317777777777,1.4,10.965,
N204,bridge,A,SATH SARI,24.1268611111111,91.4429166666666,24.8,12.136,
N204,bridge,A,CHAKLA PUNGI,24.1275277777777,91.4466388888889,2.8,12.536,
N204,bridge,A,CHANTRI CHARA CULVERTR,24.1271944444444,91.4520277777777,6.0,13.214,
N204,bridge,A,CHANDRI CULVERT,24.1278888888888,91.464,1.65,14.587,
N204,bridge,A,Ram Bhanga Bridge,24.0013333,91.4771938,50.0,16.284,
N204,bridge,B,RAMAGANJA CULVERT,24.1387499999999,91.4805,9.3,16.85,
N204,bridge,A,LABONGO GIRDER BRIDGE,24.1422222222222,91.4829722222222,39.8,17.297,
N204,bridge,A,Labongo Bridge,24.1441099924302,91.4833719864541,46.8,17.563,
N204,bridge,D,KARAGANUT,24.1464722222222,91.4849722222222,13.5,17.857,
N204,bridge,A,CHANDPUR BOX CULVERT,24.1719722222222,91.5000277777777,6.2,21.191,
N204,bridge,B,Chandpur Bridge,24.1859997,91.5135,39.5,21.41,
N204,bridge,A,HATUNDA BOX CULVERT,24.1931111111111,91.5193611111111,9.24,24.818,
N204,bridge,A,NATUM BAZAR BOX CULVERT,24.2064166666666,91.5145277777777,3.0,26.472,
N204,bridge,A,SIGNHARD BOX CULVERT,24.2175277777777,91.5098055555555,2.24,27.775,
N204,bridge,A,PICE MILL BOX CULVERT,24.2212499999999,91.5086111111111,3.1,28.196,
N204,bridge,C,NORPATI BOX CULVERT,24.2274722222222,91.5063611111111,3.12,28.968,
N204,bridge,C,NORPATI BOX CULVERT,24.2306388888888,91.5049444444444,24.2,29.35,
N204,bridge,A,CRIKOTA,24.2332222222222,91.5039444444444,1.55,29.61,
N204,bridge,A,DURGAPUR,24.2504722222222,91.4933333333333,1.5,31.801,
N204,bridge,C,Durgapur Bridge,24.252372476923,91.4912738641025,17.85,32.21,
N204,bridge,A,NEAR SHAIS TAGAMJ BOX CULVERT,24.2616666666666,91.48225,4.5,33.55,
N204,bridge,A,UBAHATA SLAB CULVERT,24.2665833333333,91.4769444444444,4.3,34.3,
N204,sourcesink,,Road End intersecting N2 at Shaistagonj Round About.,24.2673882,91.4771382,,34.421,
